port_name,GID_0,freight_import,freight_export,freight_total,country,continent,lon,lat
Abbot Point,AUS,70001.71910753915,28289536.861303147,28359538.580410685,Australia,Australia,148.08574855224262,-19.86347273048479
Abenra,DNK,595.3841860865363,1820.6189925301903,2416.0031786167265,Denmark,Northern-Europe,9.4328687515463,55.03613674896311
Aberdeen,GBR,1173274.693655626,925165.2662022151,2098439.959857841,United Kingdom,Western-Europe,-2.071933161301114,57.13970754858299
Aberdeen,USA,274586.2926264323,964238.0776732926,1238824.3702997249,U.S.A.,North-America,-123.84900253523409,46.95740684544593
Abidjan,CIV,10216297.085471172,3727555.939506062,13943853.024977233,Cote d'Ivoire,Africa,-4.02121100946266,5.281131862318626
Abu Zaby,ARE,12324423.668966457,9593448.045575278,21917871.714541733,United Arab Emirates,Middle-East,54.49529187527073,24.508284060313873
Acajutla,SLV,2486633.458019795,932510.3259478743,3419143.783967669,El Salvador,Latin-America,-89.836482133761,13.576548729013748
Acapulco,MEX,55815.19243555599,100497.21866924631,156312.4111048023,Mexico,Latin-America,-99.87665273945912,16.835825834203092
Aden,YEM,5448367.435174911,1910342.011439048,7358709.446613959,Yemen,Middle-East,44.95385819790221,12.804423036346144
Agadir,MAR,1872245.5973431203,1659967.6604267014,3532213.2577698217,Morocco,Africa,-9.640954132616516,30.423327619276023
Ahus,SWE,131.9291624449538,267.64406548521265,399.57322793016647,Sweden,Northern-Europe,14.323414129865048,55.9281476828496
Aiyion,GRC,4.128356439772546,55.017873974078995,59.14623041385154,Greece,Mediterranean,21.846493838096944,38.33475387391774
Ajman,ARE,2414.4639273249154,6532.720398130777,8947.184325455692,United Arab Emirates,Middle-East,55.45156842093279,25.423110788806916
Akita-Funakawa Ko,JPN,1096463.5406859284,192513.90409243418,1288977.4447783625,Japan,Asia,140.0525074687916,39.7625318482917
Ako,JPN,243480.5296356023,9309.953000238904,252790.48263584118,Japan,Asia,134.375873722863,34.738439552888686
Akureyri,ISL,457257.2079357296,182141.00931078583,639398.2172465154,Iceland,Northern-Europe,-18.07839303021677,65.69586227498087
Al Ahmadi,YEM,4958748.115972241,1112985.5729790747,6071733.688951316,Yemen,Middle-East,42.93012040605359,14.861116019377846
Al Aqabah,JOR,14194078.962094337,8429172.872815894,22623251.83491023,Jordan,Middle-East,34.98133433410047,29.452474342189138
Al Basrah,IRQ,3416.250532432903,139.00066610094328,3555.2511985338465,Iraq,Middle-East,47.841177870216015,30.525046506746936
Al Burayqah,LBY,114583.06336329771,2160485.0503107505,2275068.1136740483,Libya,Africa,19.594087391156314,30.414615149780975
Al Hamriyah LPG Terminal,ARE,2917100.26662155,2679902.858330709,5597003.124952259,United Arab Emirates,Middle-East,55.49724762578011,25.47263067270494
Al Iskandariyh (Alexandria),EGY,31696589.39133393,11052488.230126008,42749077.62145994,Egypt,Africa,29.836444842191625,31.163581730234426
Al Jubayl,SAU,5578960.602597134,72200782.70769624,77779743.31029338,Saudi Arabia,Middle-East,49.68607374636832,27.049542718233543
Al Kuwayt,KWT,6547686.13045202,4179671.087900807,10727357.218352828,Kuwait,Middle-East,47.93272475961702,29.35477517146509
Al Ladhiqiyah,SYR,4618301.201144661,1251500.527644107,5869801.728788768,Syria,Middle-East,35.76567246143961,35.530274738611745
Al Mukalla,YEM,558855.6803903705,319340.33068285434,878196.011073225,Yemen,Middle-East,49.15314874529035,14.521045723797027
Albany,AUS,282340.61295014544,3891884.2288688994,4174224.8418190447,Australia,Australia,117.89734746911877,-35.04071054851423
Alborg,DNK,1261014.1199384097,384793.40899366845,1645807.528932078,Denmark,Northern-Europe,9.94930922442777,57.05683243550648
Alesund,NOR,195567.62968831844,718200.0765967005,913767.7062850189,Norway,Northern-Europe,6.167929515082579,62.471533880838486
Algeciras,ESP,19930296.417010777,7646529.33678822,27576825.753799,Spain,Mediterranean,-5.419140859532775,36.15680617658855
Alger,DZA,7933398.333171084,1436436.9113765792,9369835.244547663,Algeria,Africa,3.069702610231199,36.76863601010422
Aliaga,TUR,4778111.453714058,1051258.850910364,5829370.3046244215,Turkey,Mediterranean,26.9508709797542,38.81915416572643
Alicante,ESP,170282.06623355788,483360.61243891675,653642.6786724746,Spain,Mediterranean,-0.49267375942788805,38.33102466328418
Almeria,ESP,131812.67297654247,761985.9088157066,893798.5817922491,Spain,Mediterranean,-2.4716628903556606,36.8312669051332
Alofi,NIU,3033.3408695345684,60.901797531575774,3094.2426670661443,Niue,Oceania,-169.9314607121994,-19.045917512159544
Alotoa,PNG,78447.77552824546,294889.1797003676,373336.9552286131,Papua New Guinea,Oceania,150.44893588107448,-10.323492598056571
Altamira,MEX,7239231.085237465,4659080.790274367,11898311.875511833,Mexico,Latin-America,-97.86425293390072,22.47789806882248
Alvika,NOR,28.03088229593976,16.900785816070442,44.9316681120102,Norway,Northern-Europe,6.372233511680491,62.47958124215767
Amagasaki,JPN,79372.81531840497,28608.639636020787,107981.45495442576,Japan,Asia,135.37510434911374,34.70276468297633
Amamapare,IDN,182443.88768749396,2742810.6458921116,2925254.5335796056,Indonesia,Asia,136.79364632803905,-4.828913650412673
Ambon,IDN,381124.20169832214,145668.72164104885,526792.923339371,Indonesia,Asia,128.17258833590975,-3.6778041335482237
Amirabad Port,IRN,4113.1637537534525,1804.1326432384385,5917.296396991891,Iran,Asia,53.36607710789007,36.85191614327005
Ampenan,IDN,77714.7777782301,81819.53077551642,159534.30855374652,Indonesia,Asia,116.07102392646912,-8.64982866652913
Amsterdam,NLD,30085780.209426776,8758804.112972079,38844584.32239886,Netherlands,Western-Europe,4.824715861290412,52.408850320974935
Amuay (Bahia De Amuay),VEN,688983.9957233177,33886517.027182594,34575501.02290591,Venezuela,Latin-America,-70.21196939062459,11.746846102434429
Anacortes,CAN,319563.9341195727,1146007.2880323776,1465571.2221519502,Canada,North-America,-122.62248121594436,48.497665580256964
Anchorage,USA,763061.1675797453,35497.20527554226,798558.3728552875,U.S.A.,North-America,-149.8893491982097,61.228972503822554
Ancona,ITA,846722.9956643479,286628.3488978317,1133351.3445621796,Italy,Mediterranean,13.497957350802947,43.62001646217766
Andoany,MDG,63.44016858195233,0.4358791827373402,63.876047764689666,Madagascar,Africa,48.21314482326535,-13.40744670519499
Andres (Andres LGN Terminal),DOM,2953918.4284777865,2102088.9418724305,5056007.370350217,Dominican Republic,Caribbean,-69.6286454000977,18.422787393974236
Annaba,DZA,3700553.3076882265,2492301.5183577905,6192854.826046017,Algeria,Africa,7.7699120357399725,36.899973869848196
Antalya,TUR,469043.5439243941,793874.8093548131,1262918.3532792071,Turkey,Mediterranean,30.60841462171911,36.82086688795925
Antisranana,MDG,75711.6131132065,137732.46761037767,213444.08072358416,Madagascar,Africa,49.28752977849002,-12.269448629345638
Antofagasta,CHL,1002422.7592175923,7693534.958030475,8695957.717248067,Chile,Latin-America,-70.4277708362286,-23.690515601148523
Antwerp,BEL,49791122.42348932,23316559.71264046,73107682.13612978,Belgium,Western-Europe,4.312566811382544,51.28517270388428
Anzali Port,IRN,1029.6410154295559,694.313742693047,1723.954758122603,Iran,Asia,49.51831947409697,37.472415563989685
Aomori Ko,JPN,644455.2994110059,35094.265756347835,679549.5651673537,Japan,Asia,140.77663948024073,40.842806482717506
Apia,WSM,229416.52801929548,23032.24436023242,252448.77237952792,Samoa,Oceania,-171.7595182953345,-13.82377114280151
Apra Harbor,GUM,92020.19799204523,1447.4097926147183,93467.60778465995,Guam,Oceania,144.66149072700182,13.451923370457695
Aratu,BRA,4772287.474177099,6298838.3663255265,11071125.840502625,Brazil,Latin-America,-38.48840818290625,-12.785419158180957
Arawak,BRB,3245.3360712749577,425.5821640547716,3670.918235329729,Barbados,Caribbean,-59.65110700153258,13.283343607150439
Ardalstangen,NOR,522010.7957354422,300668.06823512155,822678.8639705637,Norway,Northern-Europe,7.706502598554146,61.2340901634341
Ardel,NOR,4.542548064345813,13.29095141901854,17.833499483364353,Norway,Northern-Europe,6.170152751156748,59.145882016817694
Argentia,CAN,210921.93810331673,143390.94352606277,354312.88162937947,Canada,North-America,-53.98385491053677,47.29509220459725
Arhus,DNK,3159816.3431432475,2571486.7574032866,5731303.100546534,Denmark,Northern-Europe,10.225709086305384,56.15059238822851
Arkhangels'k,RUS,75267.8878693418,223018.48006102678,298286.3679303686,Russia,Northern-Europe,40.5642728123505,64.54778807264645
Arrecife,ESP,76849.05044802131,23888.80786481822,100737.85831283953,Spain,Western-Europe,-13.532978600899122,28.966064837555795
Arzew El Djedid,DZA,2516061.248719087,45282071.47994225,47798132.728661336,Algeria,Africa,-0.2503506934612621,35.82293323258116
As Suways,EGY,14232.529645293847,80223.68773951224,94456.21738480609,Egypt,Africa,32.55021426608439,29.9468716653464
Ash Shariqah,ARE,1673056.2632803996,3131194.6970256544,4804250.960306054,United Arab Emirates,Middle-East,55.381549187478406,25.368331586237662
Ashdod,ISR,6820102.243829076,3967068.116691653,10787170.36052073,Israel,Middle-East,34.65078465725762,31.825063657053505
Ashqelon,ISR,5699867.704181463,486018.2486465552,6185885.952828019,Israel,Middle-East,34.51678723614373,31.654143153276152
Aspropirgos,GRC,5595293.262718741,524857.5768609608,6120150.839579701,Greece,Mediterranean,23.592064241391753,38.02902423052401
Astrakhan Port,RUS,0.009062861086742955,157.69763314199892,157.70669600308565,Russia,Eastern-Europe,48.02126952023,46.387331806699606
Atapupu,IDN,234.386147271332,15.510363770584679,249.89651104191668,Indonesia,Asia,124.86889299750395,-8.987294204915617
Auckland,NZL,3214958.7789107785,1448149.9058461327,4663108.684756911,New Zealand,Oceania,174.78213327873337,-36.83911438859508
Augusta,ITA,1786598.1925718393,1005376.0007299487,2791974.193301788,Italy,Mediterranean,15.203603356286484,37.20544658964777
Avatiu,COK,47313.91978227867,6215.000438700864,53528.92022097953,Cook Islands,Oceania,-159.77946800695375,-21.19916604947338
Aveiro,PRT,1729583.7941705834,871917.8681012393,2601501.662271823,Portugal,Western-Europe,-8.710654451707518,40.6459845786362
Aviles,ESP,941051.059190844,375492.66623368027,1316543.7254245242,Spain,Western-Europe,-5.922450399158327,43.57806639366599
Avonmouth,GBR,8225180.733192105,2645239.0412117583,10870419.774403863,United Kingdom,Western-Europe,-2.7108477499970576,51.500837745586445
Az Zawiya,LBY,3.0809068820037373,7267.599113698306,7270.680020580309,Libya,Africa,12.698118747855395,32.799725550334536
Bahai De La Habana,CUB,1909806.0121178222,207973.72157293803,2117779.73369076,Cuba,Caribbean,-82.34306707536754,23.130061265334334
Bahia De Las Minas,PAN,516520.94171931257,10736.103962289859,527257.0456816024,Panama,Latin-America,-79.81607669762758,9.391166798140205
Bahia De Matarani,PER,2038126.40238464,6013677.283084913,8051803.685469553,Peru,Latin-America,-72.10706734031952,-17.000619421311356
Bahia De Valparaiso,CHL,3194674.5684329346,3648127.2139937584,6842801.782426693,Chile,Latin-America,-71.62022366738996,-33.034397392078574
Bahia Quintero (Ventanas),CHL,5916499.803177961,4429249.205231177,10345749.008409139,Chile,Latin-America,-71.50272360867577,-32.76884080628537
Bahia San Nicolas,PER,78342.02600901383,7373828.053237189,7452170.0792462025,Peru,Latin-America,-75.1886320717127,-15.286784504805919
Bahia San Vicente,CHL,4613606.874922446,4159800.2920105616,8773407.166933008,Chile,Latin-America,-73.14269308377511,-36.73022771730735
Baie Comeau,CAN,639718.7736983572,1071725.885254836,1711444.658953193,Canada,North-America,-68.12736385982839,49.246123590415614
Baie Ugue,NCL,28186.482118897115,67137.29224342837,95323.77436232548,New Caledonia,Oceania,165.5567393440599,-21.145371358927626
Bajo Grande,VEN,543556.8982176571,8145261.002707965,8688817.900925621,Venezuela,Latin-America,-71.61716538792605,10.514050921510309
Bakar,HRV,53269.49452351557,56744.89480437545,110014.38932789103,Croatia,Mediterranean,14.551818561711961,45.28337528913895
Balboa,PAN,3517512.319306735,1317494.5696360895,4835006.888942825,Panama,Latin-America,-79.56989029761058,8.955811099625459
Balikpapa,IDN,2442961.9132941607,52088995.769909605,54531957.683203764,Indonesia,Asia,116.77157337854771,-1.195332481417048
Baltimore,USA,12039524.206456028,14104283.841434771,26143808.047890797,U.S.A.,North-America,-76.5451050441524,39.22455261974271
Baltiysk,RUS,211977.0456929276,274435.6098661369,486412.65555906453,Russia,Eastern-Europe,19.91048457537416,54.641080320785555
Bamdar-E Pars Terminal,IRN,300473.893230728,7802683.917932772,8103157.8111635,Iran,Middle-East,52.24551002097419,27.709460242592407
Bamdar-E Shahid Reajie,IRN,6515726.458100895,48868447.74155045,55384174.199651346,Iran,Middle-East,56.071505908399764,27.110307609455344
Bandar Abbas,IRN,63245.93814232788,313481.54063407786,376727.47877640574,Iran,Middle-East,56.22504888943823,27.151730296641272
Bandar Khomeyni,IRN,20163040.831507295,26815959.214890335,46979000.04639763,Iran,Middle-East,49.11802313978429,30.451981895043424
Bandirma,TUR,1469653.2119378396,410007.7975912464,1879661.009529086,Turkey,Mediterranean,27.944520643664642,40.369077242701906
Banghazi,LBY,2379688.8764428515,1110719.7185238486,3490408.5949667003,Libya,Africa,20.050028953500423,32.107913390355996
Bangkok,THA,37849735.711623475,17047403.351774808,54897139.06339829,Thailand,Asia,100.56966285990379,13.62274380562763
Banjarmasin,IDN,43234.04994029522,55760.596406987395,98994.64634728261,Indonesia,Asia,114.54779856003636,-3.2957360662389203
Banjul,GMB,1291745.4887158123,151563.1868075413,1443308.6755233537,Gambia,Africa,-16.570580660320303,13.44771943408542
Banten,IDN,16147869.883300522,17791659.83503233,33939529.71833285,Indonesia,Asia,105.95316016319939,-6.015676189777397
Banzart,TUN,3791933.8158910424,1023074.1688394338,4815007.9847304765,Tunisia,Africa,9.871554887911458,37.26775992180114
Bar,MNE,386036.96069160546,515834.78981691593,901871.7505085215,Montenegro,Mediterranean,19.082994856939983,42.093249075541536
Barbor's Point,USA,1162559.497216296,234941.06979127205,1397500.567007568,U.S.A.,North-America,-158.10352783446646,21.299188968750926
Barcelona,ESP,16577249.93301168,8453566.998934528,25030816.93194621,Spain,Mediterranean,2.1619328258934365,41.336249874469324
Bari,ITA,1355663.544518748,119069.81664968788,1474733.361168436,Italy,Mediterranean,16.86153494567936,41.13619743138477
Barranquilla,COL,4891740.608360285,6486891.327561264,11378631.93592155,Colombia,Latin-America,-74.75833563179354,10.970999064058816
Barry,GBR,123624.56881567318,145428.72854436206,269053.29736003524,United Kingdom,Western-Europe,-3.260302462145157,51.398714197144706
Basseterre,KNA,139539.85733702744,11747.454032545587,151287.31136957303,Saint Kitts and Nevis,Caribbean,-62.71385254784511,17.2886127448879
Basuo,CHN,540873.46941358,418610.6312931375,959484.1007067175,China,Asia,108.6341879281954,19.08852707633904
Bata,GNQ,489206.3470323634,1247463.0416185765,1736669.3886509398,Equatorial Guinea,Africa,9.738561443391198,1.8274492719613666
Batangas City,PHL,3300151.4125062325,2572336.4220252596,5872487.834531492,Philippines,Asia,121.01242072813226,13.737286124600331
Baton Rouge,USA,3343397.4325688607,3377936.9647561666,6721334.397325028,U.S.A.,North-America,-91.20527053196848,30.437949700121244
Batumi,GEO,981336.7670697791,223249.8122193512,1204586.5792891304,Georgia,Eastern-Europe,41.653185351596754,41.65431207872545
Baubau,IDN,257251.66770583615,368474.6391686766,625726.3068745127,Indonesia,Asia,122.58612896519938,-5.4902905961069255
Bay City,USA,0.14543211056007319,0.5421098291574042,0.6875419397174775,U.S.A.,North-America,-83.84453295934836,43.61737278810567
Bayonne,FRA,622635.7133679457,588791.2957510694,1211427.0091190152,France,Western-Europe,-1.500052653200647,43.516378384877
Bayrut,LBN,8283309.99031274,1486040.0829978918,9769350.073310632,Lebanon,Middle-East,35.5586102562549,33.915669317148925
Bayuquan,CHN,52111546.45495578,8551505.699591652,60663052.15454743,China,Asia,122.0605665080603,40.28418662767342
Beaumont,USA,7309282.471405494,11083629.72197531,18392912.193380803,U.S.A.,North-America,-94.02562824672783,30.04670699587936
Bedyansk,UKR,280600.8130990494,2397723.5628904174,2678324.375989467,Ukraine,Eastern-Europe,36.77750401495035,46.74832294167254
Beihai,CHN,4514268.588820369,1173131.5178607225,5687400.106681092,China,Asia,109.08670368166547,21.456025197499454
Beira,MOZ,4062189.901636601,2406464.198921413,6468654.100558015,Mozambique,Africa,34.83531412554788,-19.82495440063514
Bejaia,DZA,7309918.846893047,5776131.412581893,13086050.25947494,Algeria,Africa,5.090464736680983,36.74969834363214
Belawan,IDN,1928065.91305678,8288485.004418628,10216550.917475408,Indonesia,Asia,98.70527774837986,3.7914014579345547
Belem,BRA,4730348.977152506,59763305.22048226,64493654.197634764,Brazil,Latin-America,-48.57640840306025,-1.4686199504270077
Belfast,GBR,7458867.166247696,5452916.254898383,12911783.42114608,United Kingdom,Western-Europe,-5.890026365691502,54.62132262630101
Belize City,BLZ,251749.88342562589,567648.7737519928,819398.6571776187,Belize,Latin-America,-88.19845995922886,17.473729005487588
Bellingham,USA,1503.0529219986938,35244.15682081035,36747.20974280904,U.S.A.,North-America,-122.50348819440325,48.751186061160915
Benicia,USA,9.444146180105168,9.428094636792059,18.872240816897225,U.S.A.,North-America,-122.13780997472773,38.043476818139105
Benoa,IDN,120504.3990192798,65139.47092454719,185643.86994382698,Indonesia,Asia,115.2126767068095,-8.746469477840975
Berbera,SOM,1287782.9076806179,112875.50918267488,1400658.4168632927,Somalia,Africa,44.99728566977974,10.443225787191512
Bergen,NOR,377.17698229539945,28.79656365164073,405.9735459470402,Norway,Northern-Europe,5.310108610201816,60.39665740735552
Big Creek,BLZ,26284.16474628282,93355.28859677681,119639.45334305963,Belize,Latin-America,-88.40317738875554,16.511999635449577
Bintulu Port,MYS,1454505.799781728,4844222.974853695,6298728.774635423,Malaysia,Asia,113.06482939679663,3.256588919484861
Bissau,GNB,299808.8902305258,204628.17675707693,504437.06698760274,Guinea-Bissau,Africa,-15.584228546477194,11.854750910573886
Bitung,IDN,3522788.6123087886,2685476.321852032,6208264.934160821,Indonesia,Asia,125.18637789912322,1.4400132723443129
Blanglancang,IDN,0.0032575903897316405,36.47089845848029,36.47415604887002,Indonesia,Asia,97.03923526578241,5.241371740436972
Bluff Harbor,NZL,1329138.6617226668,1446089.5589317558,2775228.2206544224,New Zealand,Oceania,168.34426330493557,-46.59999991636169
Bohai Bay,CHN,60872229.02744257,3009116.9998380058,63881346.02728057,China,Asia,117.87922664605438,38.342037683114135
Bonny,NGA,74217.18620576363,53984579.8696827,54058797.05588847,Nigeria,Africa,7.144895557670569,4.422045265620172
Bontang LNG Terminal,IDN,1840532.8569790162,37527182.88010705,39367715.73708607,Indonesia,Asia,117.4957982215337,0.09429013392757854
Boosaaso,SOM,116025.73289836699,2913.9026884288287,118939.63558679582,Somalia,Africa,49.17824612751278,11.291516864129383
Bordeaux,FRA,1352149.270232656,484675.57795682957,1836824.8481894857,France,Western-Europe,-0.5483973603221867,44.949201459358484
Boston,GBR,58.33829573312529,14.067884815806599,72.40618054893189,United Kingdom,Western-Europe,-0.019042384866549845,52.96935907679779
Boston,USA,4108286.5494551104,1200864.020404349,5309150.56985946,U.S.A.,North-America,-71.02470171864819,42.36447938612398
Botany Bay,AUS,9731802.654276187,3424833.908513459,13156636.562789645,Australia,Australia,151.21471617970263,-33.987422648555096
Botas,TUR,556612.6590859557,3513695.0943497727,4070307.753435728,Turkey,Mediterranean,35.92199802852687,36.85416475927671
Botas Natural Gas Terminal,TUR,3389991.420400675,293597.7655905872,3683589.185991262,Turkey,Mediterranean,27.966903756864617,40.98723654052166
Brake,DEU,8882399.746289402,1938700.643251855,10821100.389541257,Germany,Western-Europe,8.490135483344483,53.34356424511868
Brasil Port,BRA,527844.5826100276,183182.22059373927,711026.8032037669,Brazil,Latin-America,-40.99980155417795,-21.860227647441377
Bremen,DEU,7763197.935659939,3809304.6104300437,11572502.546089983,Germany,Western-Europe,8.790488973775506,53.0793013860378
Bremerhaven,DEU,17612116.88364065,22881950.470899116,40494067.35453977,Germany,Western-Europe,8.559532083198208,53.557989074253186
Brevik,NOR,199019.59414199655,861593.3495875641,1060612.9437295606,Norway,Northern-Europe,9.696772287862009,59.06289917525718
Bridgeport,USA,0.011160061771611688,0.9476303780779429,0.9587904398495546,U.S.A.,North-America,-73.17511736612565,41.15748119446917
Bridgetown,BRB,441079.7348330877,61556.742758156215,502636.4775912439,Barbados,Caribbean,-59.59681310876612,13.07275312160023
Brighton,TTO,77349.92468306882,78317.80286305252,155667.72754612134,Trinidad and Tobago,Caribbean,-61.63372045524326,10.247290241404006
Brindisi,ITA,4708793.973086542,220206.21731619706,4929000.19040274,Italy,Mediterranean,17.97117129060219,40.649205852743535
Brisbane,AUS,10591000.433454756,11637644.898872683,22228645.33232744,Australia,Australia,153.1558848690757,-27.393515352987137
Brofjorden,SWE,3548177.353184812,3599395.8082928546,7147573.161477666,Sweden,Northern-Europe,11.422294526899059,58.3509747477612
Broome,AUS,13.591440785707992,0.2991945246488314,13.890635310356823,Australia,Australia,122.21750039585862,-18.00224122659371
Brownsville,USA,3801847.5354424147,318921.2152498091,4120768.7506922237,U.S.A.,North-America,-97.30947197502515,25.98298507017778
Bruges,BEL,241125.90054800425,52108.76619411804,293234.66674212227,Belgium,Western-Europe,3.221640142100223,51.23273370473043
Brunsbuttel Elbahafen,DEU,3824.4099240168243,5504.091095789271,9328.501019806095,Germany,Western-Europe,9.169135518250874,53.9029261017224
Brunswick,USA,2363134.5667940876,1287861.656653667,3650996.223447755,U.S.A.,North-America,-81.51484037247096,31.124647890587557
Buchanan,LBR,377913.29642039415,5678488.209695648,6056401.506116043,Liberia,Africa,-10.054221498095407,5.8593994962449365
Buco,PHL,178.75741869712334,183.9248270062048,362.68224570332814,Philippines,Asia,124.74609031208108,8.517433824441355
Buenaventura,COL,7425946.451168793,4421894.765803003,11847841.216971796,Colombia,Latin-America,-77.06200730243155,3.8761035986711248
Buenos Aires,ARG,9498083.928159645,12136828.428547755,21634912.3567074,Argentina,Latin-America,-58.354930738636824,-34.611026927300315
Buffington,USA,0.07116117425129291,0.1257928541203408,0.19695402837163373,U.S.A.,North-America,-87.40834116520354,41.63961807435646
Buka,PNG,8021.847127646692,64401.35633638135,72423.20346402805,Papua New Guinea,Oceania,154.677592059784,-5.431574457231742
Bukhta Vanino,RUS,3234128.3544082963,33401550.63342354,36635678.98783184,Russia,Eastern-Europe,140.29612144879457,49.0502006227882
Bukhta nagayeva (Nagadan),RUS,0.1464677448188592,28.238577890664367,28.385045635483227,Russia,Eastern-Europe,150.72895932811642,59.5601316276569
Bullen Baai,CUW,28865.93418361221,2013.772895392365,30879.707079004576,Curacao,Caribbean,-69.0217140529181,12.188669470639935
Bunbury,AUS,663265.4336086189,15074579.359896233,15737844.793504853,Australia,Australia,115.66213463294055,-33.30725261606007
Bur Safago,EGY,1284346.3114462667,970318.0572294857,2254664.3686757525,Egypt,Africa,33.94036109702331,26.71178346436033
Bur Said (Port Said),EGY,5158427.73759731,3201237.159624591,8359664.8972219005,Egypt,Africa,32.310665815141064,31.25214147681517
Burgas,BGR,9467006.52045716,4312788.217058969,13779794.737516128,Bulgaria,Eastern-Europe,27.491662543079862,42.464163144145466
Burnie,AUS,314835.0844960755,1290593.8956200911,1605428.9801161666,Australia,Australia,145.91075253567715,-41.05425931911664
Burns Harbor,USA,313828.5433052789,64707.458143400734,378536.0014486796,U.S.A.,North-America,-87.1446218622191,41.63392655651917
Bushehr,IRN,393712.58721722465,643129.989417556,1036842.5766347806,Iran,Middle-East,50.83874828979714,28.992780957453785
Butinge Oil Terminal,LTU,113771.33070770778,19048.62396801075,132819.95467571853,Lithuania,Eastern-Europe,20.955661793937487,56.048029736370474
Butuan City,PHL,297.942591598003,0.0,297.942591598003,Philippines,Asia,125.505604996824,9.276937495746393
Cabanas,CUB,1.8964719566491537,0.0,1.8964719566491537,Cuba,Caribbean,-83.96804651759855,22.678620189437193
Cabedelo,BRA,5.598733351816074,5.455895916759281,11.054629268575354,Brazil,Latin-America,-34.839094608280156,-6.973846198234029
Cadiz,ESP,942591.9924414593,658002.3901442977,1600594.382585757,Spain,Western-Europe,-6.26457637733516,36.51863696548217
Cagatan De Oro,PHL,251.35287397913632,109.29355475240322,360.6464287315396,Philippines,Asia,124.68460576318552,8.490245481975455
Cagliari,ITA,934829.8880543709,515399.7171994829,1450229.6052538538,Italy,Mediterranean,9.077001080457931,39.19452237153031
Cairns,AUS,510045.41519965633,979445.6277148455,1489491.0429145019,Australia,Australia,145.7857185186127,-16.927841947563998
Calabar,NGA,183823.67009763204,7105987.932141614,7289811.6022392465,Nigeria,Africa,8.299691758062119,4.966983625413345
Calais,FRA,189213.7873567739,142995.27448981992,332209.0618465938,France,Western-Europe,1.8584337541480154,50.96561800299368
Calcutta,IND,1364043.7661312053,828387.0195136849,2192430.7856448903,India,Asia,88.30388019544425,22.54296727665667
Caleta Patillos,CHL,333223.4304164107,8624905.115495715,8958128.545912126,Chile,Latin-America,-70.19304529184716,-20.77677042548477
Calumet Harbor,USA,207248.78970593848,66199.86142829167,273448.65113423014,U.S.A.,North-America,-87.54727340130309,41.68255858019496
Campana,ARG,5314721.979338136,1534588.7333598218,6849310.712697958,Argentina,Latin-America,-58.942027908712774,-34.15719684138152
Canaport (St. John),CAN,4116128.4032770107,511672.8582369455,4627801.261513956,Canada,North-America,-65.9850921802972,45.19633433063257
Canaveral Harbor,USA,2253006.0462995227,196289.77140371216,2449295.817703235,U.S.A.,North-America,-80.59866420649936,28.394847551633685
Cang Doosan Vina,VNM,639.5406609168614,3170.1592643755444,3809.6999252924056,Vietnam,Asia,108.79229972496897,15.40717113535367
Cap Haitien,HTI,319229.6958973312,6013.443184107515,325243.13908143877,Haiti,Caribbean,-72.19906143403037,19.768389939762983
Cape Town,ZAF,14135130.701242482,8540434.322046613,22675565.023289096,South Africa,Africa,18.440042847222724,-33.900688639404756
Caracasbaai,CUW,7643.816962351253,0.0,7643.816962351253,Curacao,Caribbean,-68.86422024762645,12.072708910759784
Cardiff,GBR,713730.437745508,384020.0660519554,1097750.5037974634,United Kingdom,Western-Europe,-3.158256001482387,51.45532778821769
Cartagena,COL,8573936.278338868,22308919.26842454,30882855.54676341,Colombia,Latin-America,-75.52757935359057,10.336821293751132
Cartagena,ESP,10055429.2447095,2693138.7427688604,12748567.98747836,Spain,Mediterranean,-0.9742948096079336,37.58211826576507
Casablanca,MAR,8099416.042787019,8840267.308037994,16939683.35082501,Morocco,Africa,-7.598852857835814,33.609899095386844
Castries,LCA,3142726.444646458,410186.9340720058,3552913.3787184637,Saint Lucia,Caribbean,-61.007758335239764,14.001931342343209
Catania,ITA,184882.9322220081,179613.73618195576,364496.66840396385,Italy,Mediterranean,15.09244136663411,37.49658263414998
Cayo Moa Grande,CUB,283461.04589079286,96712.98020266306,380174.0260934559,Cuba,Caribbean,-74.90162034172158,20.659240409427195
Cebu,PHL,7373897.324073128,3188126.3501376463,10562023.674210776,Philippines,Asia,123.92198621119377,10.297805106771017
Chaguaramas,TTO,438886.20063171873,236883.7124853154,675769.9131170341,Trinidad and Tobago,Caribbean,-61.64114698730022,10.678251863228862
Chan Bahar,IRN,6095.6338646322965,2944.2325411949764,9039.866405827273,Iran,Middle-East,60.6058258576521,25.30469405954206
Changshu,CHN,15.836785174797463,158.7753633015041,174.61214847630154,China,Asia,120.95726132906685,31.760631993803628
Changzhou,CHN,29.136878453775875,155.56729693848578,184.70417539226165,China,Asia,120.00023340581531,31.963190969161573
Chaozhou,CHN,14.630820877169473,35.66642295935836,50.29724383652783,China,Asia,117.10323510390417,23.565711568019566
Charco Azul,PAN,28.212522198155817,30.405651844743275,58.61817404289909,Panama,Latin-America,-82.87107356471105,8.20893446614882
Charleston,USA,13441884.8357941,9438889.985430438,22880774.82122454,U.S.A.,North-America,-79.9202440664904,32.893243273454615
Charlestown,KNA,5192.093517410663,506.63884104614345,5698.732358456806,Saint Kitts and Nevis,Caribbean,-62.62370090239854,17.109352944500465
Chatnam Docks,GBR,336853.02386705595,104004.79286226029,440857.81672931626,United Kingdom,Western-Europe,0.5469101952241601,51.401344524909575
Chennai (Madras),IND,22338858.957970265,5170482.454974139,27509341.412944406,India,Asia,80.30070353315764,13.104428569457259
Cherry Point,CAN,2926429.5377042904,2569118.9487924804,5495548.486496771,Canada,North-America,-122.72903063258919,48.84683414996107
Chester,USA,455476.4850385796,190481.9417706607,645958.4268092404,U.S.A.,North-America,-75.34097675703273,39.8518493064655
Chi-Lung,TWN,9179694.775651116,3826012.7599413837,13005707.5355925,Taiwan,Asia,121.75234767698986,25.147372664824378
Chiba Ko,JPN,40366888.832873575,4526001.399273464,44892890.23214704,Japan,Asia,140.04998279317235,35.52137984228452
Chiriqui Grande,PAN,5629611.969076817,8598.07781146087,5638210.046888278,Panama,Latin-America,-82.11274371768181,8.950841301683365
Chittagong,BGD,69721095.71899788,3742532.970986681,73463628.68998456,Bangladesh,Asia,91.82223616729938,22.28472287089229
Chiwan,CHN,2829346.3217375786,550890.9809182374,3380237.302655816,China,Asia,110.03058715573367,19.960948510710306
Cienfuegos,CUB,1009482.1488690671,478174.5270695552,1487656.6759386223,Cuba,Caribbean,-80.47784593382993,22.15089181316593
Cilacap,IDN,1545312.76788149,10857030.226662286,12402342.994543776,Indonesia,Asia,109.00197413282513,-7.732600118918459
Cirebon,IDN,21307.744267640603,611.6528491427093,21919.39711678331,Indonesia,Asia,108.59666675662493,-6.7370902470394896
Civitavecchia,ITA,7422892.7364642415,1158290.6146065688,8581183.35107081,Italy,Mediterranean,11.773428066538266,42.10697384526755
Clarkson,CAN,38800.06413038514,21247.206295945827,60047.270426330964,Canada,North-America,-79.60938671527617,43.489723448404135
Cleveland,USA,278773.6381580621,50550.005456507446,329323.64361456956,U.S.A.,North-America,-81.69498195982194,41.47759739428567
Clifton Pier,BHS,118789.87382188729,9889.970437165555,128679.84425905284,Bahamas,Caribbean,-77.54273840844961,25.00430319662158
Coatzacoalcos,MEX,2602607.0312460074,10286122.49968037,12888729.530926377,Mexico,Latin-America,-94.41473487990892,18.14108586942448
Colombo,LKA,17922605.625125352,1918142.9622321886,19840748.58735754,Sri Lanka,Asia,79.83776555553594,6.9456965177325936
Colonia,FSM,19167.354057853867,558.864785907114,19726.21884376098,Micronesia,Oceania,138.12862737953196,9.514968509064547
Come By Chance Harbor,CAN,1040568.2904484514,6874813.8106404925,7915382.101088944,Canada,North-America,-54.016407328260605,47.77945389482648
Comodoro Rivadavia,ARG,144484.96625663835,494515.4501944708,639000.4164511091,Argentina,Latin-America,-67.50437077407159,-46.093452892235774
Conakry,GIN,4119200.8816765957,19811746.083377212,23930946.965053808,Guinea,Africa,-13.714056364980665,9.51593890042189
Conchan Oil Terminal,PER,1434290.0792118367,480875.24095382536,1915165.320165662,Peru,Latin-America,-76.94272203376,-12.253341363011819
Corinto,NIC,2741634.8930411413,1050349.9400782096,3791984.833119351,Nicaragua,Latin-America,-87.16245853757798,12.473339936999952
Cork,IRL,12006193.574803943,4946945.0689395815,16953138.643743522,Ireland,Western-Europe,-8.330767581653467,51.86155358285146
Coronei,CHL,2264181.122528641,4859515.68638285,7123696.808911491,Chile,Latin-America,-73.15907896145595,-37.03063252528679
Corpus Christi,USA,11839317.228539955,12241092.752179384,24080409.98071934,U.S.A.,North-America,-97.36979124245808,27.830469274773307
Cotonou,BEN,5242242.282786264,657178.9602271613,5899421.243013426,Benin,Africa,2.427030381996611,6.346151938879477
Covenas Offshore Term.,COL,257187.5658686847,45519429.394580774,45776616.96044946,Colombia,Latin-America,-75.75345268610646,9.489903858805299
Cueta,ESP,1146934.7098009035,797252.4068525027,1944187.116653406,Spain,Western-Europe,-5.312774637932047,35.89431841167933
Cuxhaven,DEU,1796751.293294816,961887.8871558968,2758639.180450713,Germany,Western-Europe,8.71367426503149,53.8646395270741
Da Nang,VNM,2561466.4579289206,10130854.09874073,12692320.55666965,Vietnam,Asia,108.22499757484223,16.108524077469067
Daesan Hang,KOR,18.418385877283956,2718.105744521853,2736.524130399137,South Korea,Asia,126.42105758269965,37.02722527937124
Dahej,IND,30296704.452209458,1024804.7034746957,31321509.155684154,India,Asia,72.41080264942855,21.69713041782022
Dakar,SEN,8937732.203098215,3357257.8324416745,12294990.03553989,Senegal,Africa,-17.428023247553146,14.682313664027761
Dalian,CHN,48206978.45375355,24363272.434370827,72570250.88812438,China,Asia,121.75624397670326,38.98616040562791
Damietta,EGY,13778241.599263506,6734803.088927593,20513044.6881911,Egypt,Africa,31.76336401505416,31.470220851164697
Damman,SAU,16622715.109533872,6555212.965646881,23177928.075180754,Saudi Arabia,Middle-East,50.20436957949112,26.499994929649667
Dampier,AUS,982924.6295398687,161493351.7043016,162476276.33384147,Australia,Australia,116.72154733722003,-20.617064312637265
Dandong,CHN,27.003957738749932,1278.0321195517604,1305.0360772905103,China,Asia,124.13438777886147,39.79900608357087
Dar Es Salaam,TZA,7025967.812539197,1481857.9942050148,8507825.80674421,Tanzania,Africa,39.2956171081445,-6.833661905174291
Daru,PNG,0.505736806379113,21827.33339868508,21827.83913549146,Papua New Guinea,Oceania,143.21579381473856,-9.054556666166775
Darwin,AUS,1182355.58476127,6477501.838901387,7659857.423662657,Australia,Australia,130.8676967127785,-12.489325613126999
Davao,PHL,11810600.340216544,20515299.883296322,32325900.223512866,Philippines,Asia,125.66803521758536,7.221210622366022
Davisville Depot,USA,1045512.6590960906,71131.84992448417,1116644.5090205749,U.S.A.,North-America,-71.40845360775016,41.613408974767225
Delfzijl,NLD,614828.1302002231,702477.0235005086,1317305.1537007317,Netherlands,Western-Europe,6.962175616371235,53.318284318643215
Delta Terminal,TUR,646205.9144612248,62718.623459968745,708924.5379211935,Turkey,Mediterranean,36.14875191732878,36.83939848555146
Derince Burnu,TUR,11025211.724356344,4652369.973881688,15677581.698238032,Turkey,Mediterranean,29.791888645458563,40.762145217796004
Devonport,AUS,335809.252379785,270855.3450936642,606664.5974734492,Australia,Australia,146.36394494450664,-41.18184160182466
Dhamara Port,IND,256.6514277594954,151.99121283326664,408.64264059276206,India,Asia,86.96441572265493,20.821275937727233
Dhekelia,CYP,43600.10671495229,10600.20815843229,54200.31487338458,Cyprus,Mediterranean,33.31910338971465,34.7192901285389
Djen-Djen,DZA,4237000.613549027,2205736.0090125212,6442736.622561548,Algeria,Africa,5.892686604277558,36.826315741842286
Djibouti,DJI,4216441.799750864,61088.33857728191,4277530.138328145,Djibouti,Africa,43.10467497069612,11.607245679499746
Djupivogur,ISL,13645.84125445225,20869.92310580096,34515.76436025321,Iceland,Northern-Europe,-14.284368629002472,64.66219019974245
Djupviken,NOR,215.51646527599573,79.06958994094666,294.5860552169424,Norway,Northern-Europe,11.335857150779,63.74427950673218
Donggala,IDN,7.006829210451201,865.5704992216654,872.5773284321166,Indonesia,Asia,119.81747969009554,-0.7456475198875517
Dos Bocas Terminal,MEX,81428.73759621268,374413.32078701543,455842.05838322814,Mexico,Latin-America,-93.20051484575498,18.44155161928273
Douala,CMR,6367015.698010367,3980299.4624396875,10347315.160450054,Cameroon,Africa,9.68397577484217,4.057133316943943
Dover Harbor,GBR,549470.921309674,348551.29113355797,898022.2124432321,United Kingdom,Western-Europe,1.3268854175917861,51.121113903024764
Drammen,NOR,717771.278616144,1220142.1209587713,1937913.3995749154,Norway,Northern-Europe,10.244444551951718,59.739835299784
Drogheda,IRL,807304.8265120431,408405.5433313797,1215710.369843423,Ireland,Western-Europe,-6.320252966886747,53.718956540656976
Duba,SAU,442880.49150278803,567337.6930722479,1010218.1845750359,Saudi Arabia,Middle-East,35.543506161947334,27.560626687483943
Duba Bulk Plant Tanker Terminal,SAU,95351.38256271229,51433.63172602441,146785.01428873668,Saudi Arabia,Middle-East,35.73694989251869,27.320741776410387
Dubayy,ARE,927926.1255761416,5242196.2507355325,6170122.376311674,United Arab Emirates,Middle-East,55.29586184695633,25.275528110019504
Dublin,IRL,12647440.340908945,4823608.623795869,17471048.96470481,Ireland,Western-Europe,-6.205007351926639,53.34515774916181
Dudinka,RUS,0.006123477607993386,119.55336092002183,119.55948439762983,Russia,Eastern-Europe,86.16428897770183,69.40673696227077
Dumai,IDN,2926291.0827972554,38472033.03446504,41398324.11726229,Indonesia,Asia,101.50225403244083,1.7027621807972455
Dunkerque Port Ouest,FRA,22543724.83721722,4312952.540435842,26856677.377653062,France,Western-Europe,2.268251940953723,51.02846997579867
Durban,ZAF,41444528.54633037,31478029.947084956,72922558.49341533,South Africa,Africa,31.02979371826348,-29.881281912987717
Durres,ALB,1068020.320711932,1036134.8312370788,2104155.151949011,Albania,Mediterranean,19.42706402978596,41.33444363449616
EL Segundo,USA,3693261.573426432,136046.37141742095,3829307.944843853,U.S.A.,North-America,-118.4313244700238,33.90830907606505
East London,ZAF,1529922.8643903167,1425917.1791945002,2955840.043584817,South Africa,Africa,27.9128744627081,-33.025993438495796
Eemshaven,NLD,1413656.5951949758,394983.8369203874,1808640.4321153632,Netherlands,Western-Europe,6.8406466169429265,53.446981643406
El Grao,ESP,2794688.5254098973,1248766.4990416502,4043455.0244515473,Spain,Mediterranean,0.018268115300373804,39.96119213594266
El Guamache,VEN,172753.58890793458,558052.7241113008,730806.3130192354,Venezuela,Latin-America,-64.03284703857435,10.857584586839788
El Jorf Lasfar,MAR,15161473.048449887,7485130.544298282,22646603.59274817,Morocco,Africa,-8.628965920330062,33.126522599244616
El Palito,VEN,623067.0520400536,11289656.638522793,11912723.690562846,Venezuela,Latin-America,-68.13294848400025,10.493001663232091
El-Adabiya,EGY,3516310.859099336,1898793.8532868312,5415104.712386167,Egypt,Africa,32.47781120642856,29.89626701304394
Elevsis,GRC,4233785.241221142,2177077.5093285963,6410862.750549738,Greece,Mediterranean,23.525797877328618,38.037178467810094
Emden,DEU,2888146.9838751345,1660185.3483951637,4548332.332270298,Germany,Western-Europe,7.19886617135378,53.35573853829146
Empire,USA,47171.547430370876,68147.72990638863,115319.27733675951,U.S.A.,North-America,-124.25210653153545,43.40658056227046
Ende,IDN,2.830884517918063,42.87276622154253,45.70365073946059,Indonesia,Asia,121.65370518703665,-8.85079695895071
Ensenada,MEX,1834865.460349435,2996071.392602923,4830936.852952357,Mexico,Latin-America,-116.60523567851718,31.81489663698569
Eregli,TUR,5624517.384069025,491119.33947074466,6115636.72353977,Turkey,Eastern-Europe,31.411261360755137,41.27694642927879
Esbjerg,DNK,1247876.361824904,1754774.6677853814,3002651.0296102855,Denmark,Northern-Europe,8.441659670747434,55.4654244825063
Eskifjordhur,ISL,2371001.616931615,781673.4480493185,3152675.0649809334,Iceland,Northern-Europe,-14.103919896870561,65.03816457217093
Esmeraldas,ECU,405161.04251268477,633224.6651137029,1038385.7076263877,Ecuador,Latin-America,-79.64728684930135,0.9899997115255812
Esperance,AUS,436994.8885906703,10980895.666241745,11417890.554832416,Australia,Australia,121.89646356105446,-33.86982548251253
Europa Point,GIB,1068929.41044574,71858.24009313408,1140787.650538874,Gibraltar,Mediterranean,-5.358443759177452,36.137935229675904
Everett,USA,383622.05609687977,333657.7958768891,717279.8519737688,U.S.A.,North-America,-122.22497982616044,47.980631108223854
Ez Zueitina,LBY,2175.3855524440983,182261.44651642768,184436.83206887176,Libya,Africa,20.059926677194824,30.897594398956358
Falkenberg,SWE,759807.8649324762,347400.9249464674,1107208.7898789435,Sweden,Northern-Europe,12.480344285090759,56.892447641865786
Falmouth,JAM,0.0013308783677082785,0.0,0.0013308783677082785,Jamaica,Caribbean,-77.63917792817495,18.490409957451273
Falmouth Harbour,GBR,212909.83869479006,74160.06341454663,287069.9021093367,United Kingdom,Western-Europe,-5.055002092672293,50.1545049429866
Famagusta,TUR,48933.483462619406,29272.000391906793,78205.4838545262,Turkey,Mediterranean,33.93395970763198,35.23164501308624
Fang-Cheng,CHN,50589800.42779618,3818238.8525686273,54408039.280364804,China,Asia,108.36389916040262,21.594172096378877
Faradofay,MDG,90708.40654963582,486670.67241856275,577379.0789681986,Madagascar,Africa,46.96990894556124,-25.065590878177417
Fawley Marine Terminal,GBR,29062877.423362136,11880051.56308177,40942928.98644391,United Kingdom,Western-Europe,-1.3246092275919175,50.83470896898369
Felixstow,GBR,22087201.458806027,10093848.706613695,32181050.16541972,United Kingdom,Western-Europe,1.2850257185978025,51.95306078647005
Ferrol,ESP,1695570.7455430639,567619.3177709922,2263190.063314056,Spain,Western-Europe,-8.2220380285128,43.471552599822054
Figueira Da Foz,PRT,198452.02458171255,470422.5534165539,668874.5779982664,Portugal,Western-Europe,-8.855522753122937,40.144624734918956
Finnart Oil Terminal,GBR,1841775.773697166,883016.1974876082,2724791.9711847743,United Kingdom,Western-Europe,-4.842606143923179,56.11183726451377
Finnsnes,NOR,167.4955043813107,6.644328809933941,174.13983319124463,Norway,Northern-Europe,18.078184465735685,69.21978214495708
Flekkefjorden,NOR,504752.6946936237,935447.2194167131,1440199.914110337,Norway,Northern-Europe,6.884793554708198,58.27572182342621
Floro,NOR,193956.03835641633,613501.824203361,807457.8625597772,Norway,Northern-Europe,5.043473847218451,61.599045881377364
Fos,FRA,21549301.172188908,1744406.7502717853,23293707.922460694,France,Mediterranean,4.883617581047491,43.42877865898252
Founchon,USA,175324.25804698837,34261.10326412548,209585.36131111384,U.S.A.,North-America,-90.20255519700214,29.127371101408443
Foynes,IRL,6278028.91611012,1017584.8183169559,7295613.734427076,Ireland,Western-Europe,-9.080662460183166,52.62147180405903
Fredericia,DNK,1919026.0823757017,3113892.977112325,5032919.059488026,Denmark,Northern-Europe,9.754781473369249,55.560462702278265
Frederikshavn,DNK,219384.62396468458,291843.47999180853,511228.1039564931,Denmark,Northern-Europe,10.545463808156441,57.43668766928992
Fredrikstad,NOR,394672.0137545344,2330256.6358092683,2724928.649563803,Norway,Northern-Europe,10.949605256607631,59.18791949721692
Freeport,BHS,6141282.2512190025,3629107.2100694333,9770389.461288435,Bahamas,Caribbean,-78.76827542503159,26.524441102147847
Freeport,USA,6117722.947538645,6731481.758223198,12849204.705761842,U.S.A.,North-America,-95.31056723015317,28.942015286713456
Freeriksvaerk,DNK,177.31388575855152,1167.5884054666437,1344.9022912251953,Denmark,Northern-Europe,12.00815476501812,55.96279377185284
Freetown,SLE,1296128.262030392,2536901.161953281,3833029.423983673,Sierra Leone,Africa,-13.1984574105353,8.487629158250884
Fremantle,AUS,6986425.901129608,17800269.700928327,24786695.602057934,Australia,Australia,115.72799773594207,-32.146698724458346
Fujayrah Harbor,ARE,5655384.381955914,44096765.2458033,49752149.62775921,United Arab Emirates,Middle-East,56.364422696109195,25.147758370512015
Fukui Ko,JPN,244128.55368240346,68492.6059463224,312621.15962872584,Japan,Asia,136.11866569220143,36.1903055547668
Fukuyama,JPN,14295369.045365859,2369110.166569452,16664479.211935312,Japan,Asia,133.4450990039888,34.46392527780545
Funabashi,JPN,744134.9265370293,491077.46017024986,1235212.3867072791,Japan,Asia,139.96094269228738,35.66737133421458
Funafuti Atoll,TUV,33325.392664578925,5949.444053173003,39274.836717751925,Tuvalu,Oceania,179.1412534367832,-8.490426386128341
Funchal,PRT,66743.04142482851,16892.607044271943,83635.64846910044,Portugal,Western-Europe,-16.728167299686014,32.73686500071405
Furku,FIN,181762.80318241805,131105.44707848842,312868.25026090647,Finland,Northern-Europe,22.18533269656328,60.437778412706955
Fushiki-Toyama,JPN,2490641.7509907824,259418.02712086035,2750059.7781116427,Japan,Asia,137.14406014496544,36.77596229531631
Fuzhou,CHN,8764684.8458421,5453263.502140742,14217948.347982842,China,Asia,119.44888567425905,25.770769020569592
Gabes,TUN,1355881.9766367548,1680104.2017809616,3035986.178417716,Tunisia,Africa,10.103372089588298,33.91846027548771
Galeota Point Terminal,TTO,0.006350231805557441,0.0002836794814473545,0.006633911287004795,Trinidad and Tobago,Caribbean,-61.0008436325449,10.136802840845897
Galveston,USA,3726243.073843095,3730348.151219573,7456591.225062668,U.S.A.,North-America,-94.8147372798465,29.312610028535442
Galway,IRL,67516.25181180226,160407.17624123828,227923.42805304052,Ireland,Western-Europe,-9.045714701719184,53.264310337824305
Gaogang,CHN,44.11751357288777,811.3131671901638,855.4306807630516,China,Asia,119.81553637506389,32.315550083970976
Garlston,GBR,2141834.8040373684,5099323.825710268,7241158.629747637,United Kingdom,Western-Europe,-2.901797715172604,53.302639507435615
Gary,USA,1.0198259599667294,3.4109714859615288,4.430797445928258,U.S.A.,North-America,-87.32174472978474,41.617259751122226
Gavan Vysotsk,RUS,63662.06626225133,16132299.920363458,16195961.986625709,Russia,Eastern-Europe,28.56129459959622,60.601556706838984
Gavle,SWE,1372668.0707288785,1421785.5241353633,2794453.594864242,Sweden,Northern-Europe,17.222084509041075,60.69115800035436
Gdansk,POL,27747592.40386154,9838091.358350903,37585683.76221244,Poland,Eastern-Europe,18.688104236169494,54.38520811292142
Gdynia,POL,11645383.919757675,8117549.07266004,19762932.992417715,Poland,Eastern-Europe,18.53315565603749,54.53467688024032
Gebig,BRA,2843584.4675461715,26443393.188993614,29286977.656539787,Brazil,Latin-America,-44.228024924762636,-23.063687852772862
Geelong,AUS,2868277.3299657535,1757906.4201928303,4626183.750158584,Australia,Australia,144.3719294634648,-38.108439110005726
Gela,ITA,386925.25514781376,135372.3554114039,522297.61055921763,Italy,Mediterranean,14.262424762002864,37.03622098309298
Gemlik,TUR,3207292.7869472974,3139117.8448955417,6346410.631842839,Turkey,Mediterranean,29.10384210573478,40.413545583497466
General Santos,PHL,5998841.497497261,2373112.835676475,8371954.333173735,Philippines,Asia,125.15507760766776,6.066705781073839
Genova,ITA,26801743.389333308,7208581.571239,34010324.96057231,Italy,Mediterranean,8.860834273654664,44.41225883223548
Georgetown,BHS,26.108283648563443,211.07059489816615,237.1788785467296,Bahamas,Caribbean,-75.77317372101753,23.509065267718245
Georgetown,CYM,534494.8572735525,140395.43761975298,674890.2948933054,Cayman Islands,Caribbean,-81.38310895680645,19.29398672684461
Georgetown,GUY,561196.1107991893,763852.3187778866,1325048.4295770759,Guyana,Latin-America,-58.1779037739903,6.787169501690144
Geraldton,AUS,439098.6330817421,18384738.10505911,18823836.73814085,Australia,Australia,114.61304623287191,-28.776372412575043
Ghazaquet,DZA,1947661.5512162484,361585.32166377787,2309246.872880026,Algeria,Africa,-1.8646839903377834,35.103727529437634
Ghent,BEL,12305593.76397268,2708855.216844898,15014448.980817577,Belgium,Western-Europe,3.7702158310186453,51.13112416347518
Gijon,ESP,7195208.797011521,1725369.2514653767,8920578.048476897,Spain,Western-Europe,-5.685270603293729,43.5615307450962
Gioia Tauro,ITA,4851773.146393411,3180452.142953174,8032225.289346585,Italy,Mediterranean,15.904984759654733,38.4514406814403
Gisborne,NZL,102179.58967986699,1218274.410602029,1320454.000281896,New Zealand,Oceania,178.02424145853104,-38.675033303485854
Gladstone,AUS,2362119.775277711,88787412.19819547,91149531.97347318,Australia,Australia,151.2342588501086,-23.813450716524105
Glasgow,GBR,500399.8430756099,821094.1388789089,1321493.9819545187,United Kingdom,Western-Europe,-4.341387345339348,55.87037187476327
Glomfjord,NOR,69.10907887377513,33.11031454215512,102.21939341593026,Norway,Northern-Europe,13.934969066102791,66.80965265212211
Golcuk Burnu,TUR,1612000.3424854719,927579.4987654324,2539579.8412509044,Turkey,Mediterranean,29.867450320255102,40.72297179097823
Golfito,CRI,27816.163928174738,109507.573240386,137323.73716856074,Costa Rica,Latin-America,-83.16979407075316,8.622064139072796
Goole,GBR,725888.1123749911,268769.0435114134,994657.1558864044,United Kingdom,Western-Europe,-0.8723420040206594,53.69974338770448
Goose Bay,CAN,11686.183886778002,1322.1887707745263,13008.372657552529,Canada,North-America,-60.38891503642305,53.33330847082003
Gorgon LNG,AUS,37125.35031018147,5267436.748583836,5304562.098894017,Australia,Australia,115.47841312590799,-20.802302428381655
Gorontalo,IDN,6.168550929128463,68.8326130850268,75.00116401415525,Indonesia,Asia,123.0620072965996,0.5028208933015501
Goteborg,SWE,5413574.161923975,18408964.303282976,23822538.46520695,Sweden,Northern-Europe,11.868523437182773,57.688066764691435
Gourd Shanzui,CHN,2382820.21335311,1397414.9604399104,3780235.1737930207,China,Asia,121.28568484096155,39.516768964515094
Gove,AUS,201550.78451592437,10634145.416375402,10835696.200891327,Australia,Australia,136.69952493260422,-12.191997988992748
Grand Haven,USA,0.0068871607376126765,5.032127832292664,5.039014993030277,U.S.A.,North-America,-86.23111397364951,43.06166193132464
Grand Turk,TCA,2814.5484734827323,86.9048048997742,2901.4532783825066,Turks and Caicos Islands,Caribbean,-71.14934172058844,21.431322566263965
Grangemouth,GBR,1502590.8188228013,3397775.043410467,4900365.862233268,United Kingdom,Western-Europe,-3.684794546475955,56.03016500140295
Gravesend,GBR,4540793.25506933,1669072.1707902518,6209865.425859582,United Kingdom,Western-Europe,0.38553078086292136,51.44815639077155
Great Yarmouth,GBR,480736.8308089058,771322.8447131169,1252059.6755220226,United Kingdom,Western-Europe,1.7307871422228933,52.583768147760395
Green Bay,USA,18289.804062749856,4021.2223273453847,22311.02639009524,U.S.A.,North-America,-88.01624471612466,44.51544810954734
Grenaa Havn,DNK,99.07557852999145,1073.1040553818405,1172.1796339118318,Denmark,Northern-Europe,10.92682913305752,56.41598965093435
Gresik,IDN,6568454.833453295,19567077.64840308,26135532.481856372,Indonesia,Asia,112.6602112698871,-7.144384540853446
Grimsby,GBR,777590.9522628612,305569.5403972979,1083160.492660159,United Kingdom,Western-Europe,-0.07191328989186863,53.57817846852476
Guaiba Island Terminal,BRA,5392939.075045436,83103587.986071,88496527.06111644,Brazil,Latin-America,-43.90027443565826,-22.978828735065633
Guangdong Yangjiang Port,CHN,15003926.677973805,2454022.2443744023,17457948.92234821,China,Asia,111.82399444938055,21.69382724204774
Guangxi Beibu Gulf Port,CHN,13.648696244048482,238.4893201693558,252.1380164134043,China,Asia,109.54607870650833,21.510871620049773
Guangzhou,CHN,17463994.616497595,11975437.47599237,29439432.092489965,China,Asia,113.3635988236669,23.070676069997184
Guayaquil,ECU,7621013.890379585,20513333.14990998,28134347.040289566,Ecuador,Latin-America,-79.9009674925567,-2.250829005178177
Guaymas,MEX,990321.0562466154,3970295.4567071022,4960616.512953717,Mexico,Latin-America,-110.86806909497167,27.904379367046918
Gulfport,USA,635453.3329555481,53432.64814626912,688885.9811018172,U.S.A.,North-America,-89.08279787381308,30.350885513829613
Gulluk,TUR,21725.945714052566,333451.0185952986,355176.96430935117,Turkey,Mediterranean,27.589868446990423,37.18315721567714
Gwangyang Hang,KOR,49127165.96796763,11853307.262277143,60980473.23024477,South Korea,Asia,127.71380509471233,34.88356092781382
Hachinohe Ko,JPN,3278435.620938331,286666.173459683,3565101.794398014,Japan,Asia,141.52982806968097,40.550052452031515
Hai Phong,VNM,19708047.34597538,19639676.801939484,39347724.147914864,Vietnam,Asia,106.71684094159507,20.865482408019297
Haifa,ISR,9882205.838218957,2638573.2618121887,12520779.100031145,Israel,Middle-East,35.02071922114296,32.82184045643268
Haifeng power,CHN,4.133164681211909,22.034249614195314,26.167414295407223,China,Asia,115.04232412249053,22.750447095922436
Haikou,CHN,126970.58317267601,164600.60565514897,291571.188827825,China,Asia,110.28857650515019,20.034380221146534
Haimen,CHN,87429.3394506012,509165.10578557936,596594.4452361806,China,Asia,121.47014407628538,28.681664062839264
Hakata,JPN,5820614.493772913,2163175.473020649,7983789.966793561,Japan,Asia,130.38542939762246,33.6300821328113
Hakodate Ko,JPN,1070929.0018234954,371572.14208068105,1442501.1439041765,Japan,Asia,140.68252878420301,41.79929480338462
Halden,NOR,83.3354210044605,29.087241542324662,112.42266254678516,Norway,Northern-Europe,11.378322553093225,59.11606255843484
Haldia Port,IND,34356391.42118156,8249705.81510828,42606097.23628984,India,Asia,88.07704424841356,22.020467505036184
Halifax,CAN,4600528.656246097,4796964.79264466,9397493.448890757,Canada,North-America,-63.578404975855946,44.664240279347034
Halmstad,SWE,1377503.39753299,1863468.4709573986,3240971.8684903886,Sweden,Northern-Europe,12.843995169639571,56.66109860982699
Hamada Ko,JPN,264.3337295818547,92.92847524443799,357.2622048262927,Japan,Asia,131.99650686652555,34.82317787709878
Hamburg,DEU,61193762.141849265,27339340.449131172,88533102.59098044,Germany,Western-Europe,9.968653019508116,53.51233687567541
Hamilton,CAN,1171669.131282112,1009392.2717798769,2181061.4030619888,Canada,North-America,-79.80843282615506,43.28200586266023
Hamina,FIN,504210.69119545503,994636.5991257753,1498847.2903212304,Finland,Northern-Europe,27.161465293052007,60.53178144627947
Hammerfest,NOR,87103.39745151144,2755399.742250213,2842503.1397017245,Norway,Northern-Europe,23.641848724310474,70.64850012864224
Hanko,FIN,295936.3072758496,350713.43516877753,646649.7424446272,Finland,Northern-Europe,22.93259954722254,59.81601319273859
Hankow,CHN,9109.824099657622,74167.14903199517,83276.97313165279,China,Asia,114.45990805779189,30.595467751104717
Hannan Ko,JPN,54.26847095672912,9.10412118763154,63.37259214436066,Japan,Asia,135.34506033006394,34.45768495335433
Harbor Yeweiju,CHN,521226.1192185111,197723.54264560802,718949.6618641191,China,Asia,118.95820994648376,38.085957143351216
Harlingen,NLD,160500.5833158437,262642.81727295165,423143.4005887953,Netherlands,Western-Europe,5.425460885086529,53.18266862526003
Harmac,CAN,209813.8136511245,2550028.9001222127,2759842.713773337,Canada,North-America,-123.86383876650599,49.14317624401256
Haroysund,NOR,74861.62659425182,1563799.3527950523,1638660.979389304,Norway,Northern-Europe,7.007695996823539,62.86079146354778
Haydarpasa,TUR,159522.7190892005,154473.88397600732,313996.60306520783,Turkey,Mediterranean,29.015217797456806,41.00096339994033
Haypoint,AUS,272746.27042664523,114470851.97836345,114743598.2487901,Australia,Australia,149.31445384951797,-21.262326054471856
Helsingborg,SWE,1581.566401662969,1493.5057225749679,3075.072124237937,Sweden,Northern-Europe,12.702607114396505,56.01908584955418
Helsinki,FIN,781020.8478197855,1288131.8199810318,2069152.6678008172,Finland,Northern-Europe,25.034744835032583,60.187547068724555
Heysham,GBR,105432.52719464884,110281.55066769611,215714.07786234494,United Kingdom,Western-Europe,-2.916436338171277,54.033906818244375
Higashi-Harima,JPN,7944949.940425161,2395179.9485162995,10340129.888941461,Japan,Asia,134.82361113496415,34.72523348790792
Hilo,USA,78655.62913626926,2835.914041346978,81491.54317761623,U.S.A.,North-America,-155.06709687690721,19.743269886771582
Himeji,JPN,8829564.629417893,1068388.4216186758,9897953.051036568,Japan,Asia,134.64224078911982,34.77271872142368
Hiroshima,JPN,486341.9496976884,2971673.0924718017,3458015.04216949,Japan,Asia,132.4521692218322,34.34620817128361
Hirtshals,DNK,86761.27543912773,86029.41429310176,172790.68973222948,Denmark,Northern-Europe,9.972200317005917,57.59377230990972
Hitachi,JPN,10028093.077949531,2571315.4315859326,12599408.509535464,Japan,Asia,140.62511335127613,36.45099691008194
Hobart,AUS,655424.4036660204,688421.1535900465,1343845.5572560667,Australia,Australia,147.33482350849542,-42.86104374417286
Hobro,DNK,30.469546820525164,30.640020394288502,61.109567214813666,Denmark,Northern-Europe,9.801079080548725,56.63872326750803
Hofu,JPN,15.257202050704112,397.70617168572556,412.9633737364297,Japan,Asia,131.57820086120026,34.01858256245635
Homikawa,JPN,668439.6955338647,166789.8589805176,835229.5545143823,Japan,Asia,137.84605851281938,37.044518201094476
Hon Gai,VNM,14813517.965793228,6696472.228139062,21509990.19393229,Vietnam,Asia,107.05588379388736,20.976854770585792
Hong Kong,HKG,62938544.785093084,9276814.468047196,72215359.25314029,Hong Kong,Asia,114.14842045685545,22.350387921647254
Honiara,SLB,120005.70843243705,423043.2744884458,543048.9829208829,Solomon Islands,Oceania,159.9869666492247,-9.417333482214206
Honolulu,USA,1585674.5987064887,355894.2848491394,1941568.8835556281,U.S.A.,North-America,-157.92474751446278,21.32624508791791
Hopa,TUR,105934.92302240296,2778.407467038188,108713.33048944114,Turkey,Eastern-Europe,41.434696271940325,41.408066669114945
Horta,PRT,6465.138598584715,1214.8875283834036,7680.026126968118,Portugal,Western-Europe,-28.62446893343757,38.529903679473826
Horten,NOR,44.76671292139181,1.2151395286058777,45.98185244999768,Norway,Northern-Europe,10.491701987956182,59.41364856661709
Hososhima Ko,JPN,67.9304080354429,20.650167116448568,88.58057515189147,Japan,Asia,131.67641737392717,32.50397766553836
Houston,USA,37484476.164439335,48944130.48233404,86428606.64677337,U.S.A.,North-America,-95.07446556627033,29.709638591877344
Hua-Lien Kang,TWN,1.8826090964491171,235.64886438923114,237.53147348568027,Taiwan,Asia,121.63195979851908,23.98327583972513
Huelva,ESP,8110346.931381148,2478683.2330138814,10589030.16439503,Spain,Western-Europe,-6.886173283072676,37.16277671147754
Huizhou,CHN,625493.4488776762,2286995.420016184,2912488.86889386,China,Asia,114.61228550364483,22.74031256016531
Husum,DEU,97940.50236001919,19065.65693445648,117006.15929447567,Germany,Western-Europe,9.027035188940237,54.475473192386595
Husum,SWE,312990.5187058504,907524.1523588161,1220514.6710646665,Sweden,Northern-Europe,19.159087748312942,63.31615409057033
Ijmuiden,NLD,15089767.036703123,1835611.4901172773,16925378.5268204,Netherlands,Western-Europe,4.6078986608769945,52.46787569264592
Iligan,PHL,993696.5834776002,849439.2549118404,1843135.8383894407,Philippines,Asia,124.24118004943699,8.261751385171001
Illichivsk,UKR,10815389.014348919,19754267.080039326,30569656.094388247,Ukraine,Eastern-Europe,30.655422797739202,46.33521237987272
Imabari Ko,JPN,28.314621277559365,7.7241980939741826,36.03881937153355,Japan,Asia,133.02474460529461,34.05638247553906
Imatra,FIN,60.31392052461312,29.601061970849415,89.91498249546254,Finland,Northern-Europe,28.804225556671078,61.23266019056067
Imbituba,BRA,2135502.5586988316,1727178.1402506458,3862680.6989494776,Brazil,Latin-America,-48.653324377545665,-28.22915595048604
Immingham,GBR,33680182.15682681,10352497.931592539,44032680.08841935,United Kingdom,Western-Europe,-0.20084871035967222,53.64243449106034
Inchon,KOR,161775177.44058165,22857722.232749525,184632899.67333117,South Korea,Asia,126.45884943294804,37.36170932225954
Indiana Harbor,USA,2.180847940714045,17.94160487276165,20.122452813475697,U.S.A.,North-America,-87.44280180919795,41.665936992894295
Indonesia Morowali Industrial Park,IDN,4147424.9187775124,25450810.50714628,29598235.425923795,Indonesia,Asia,122.16343355841462,-2.81340311923013
Inkoo,FIN,337906.29604315106,481314.3606561671,819220.6566993182,Finland,Northern-Europe,23.94196733882955,60.0104062443655
Ipswich,GBR,1520926.964964678,1971167.6383993053,3492094.6033639833,United Kingdom,Western-Europe,1.159469181957109,52.03919402559016
Iquique,CHL,1683720.3109973026,1138277.4867040229,2821997.7977013253,Chile,Latin-America,-70.15615373585503,-20.203623838366592
Iraklion,GRC,48714.23004714656,13608.371961590356,62322.60200873691,Greece,Mediterranean,25.092790781180597,35.34545038054156
Ishikari Bay New Port,JPN,1633757.9264763005,104716.88216606407,1738474.8086423646,Japan,Asia,141.28683159864184,43.20710566180978
Ishinomaki Ko,JPN,1549070.2564471436,164548.18991417566,1713618.4463613192,Japan,Asia,141.2674552813649,38.40768168554068
Iskenderun,TUR,2096282.9627075922,1168496.324342931,3264779.287050523,Turkey,Mediterranean,36.18691007257476,36.60628919367149
Istanbul,TUR,12817450.324881213,7197393.339194922,20014843.664076135,Turkey,Mediterranean,28.928912256904304,41.033874221253434
Itajai,BRA,2667200.1871636556,9222193.05995165,11889393.247115307,Brazil,Latin-America,-48.65252345188132,-26.902238140282925
Itaqui,BRA,8179550.599115722,110519806.04951622,118699356.64863193,Brazil,Latin-America,-44.362670326265516,-2.621855746963541
Iverness,GBR,1.5118686719705743,6.617081280061195,8.12894995203177,United Kingdom,Western-Europe,-4.236591018766256,57.493084444970684
Iwakuni Ko,JPN,2292388.05787669,1108550.901328687,3400938.959205377,Japan,Asia,132.23990099373478,34.181816615395086
Izhevskoye,RUS,0.20215411428265556,508.67867717945734,508.88083129374,Russia,Eastern-Europe,20.178156694208575,54.68602808953612
Izmir,TUR,2310568.9565003063,1407150.6552698726,3717719.611770179,Turkey,Mediterranean,27.154555502934013,38.44249413811505
JSW Jaigad Port Limited,IND,19947816.603422508,1130351.097682177,21078167.701104686,India,Asia,73.21733983189742,17.295943032582827
Jabal Az Zannah-Ruways,ARE,1225836.9429729858,58936792.20784479,60162629.150817774,United Arab Emirates,Middle-East,52.82665732048446,24.157105010746637
Jacksonville,USA,6818250.204463065,2202430.485481766,9020680.68994483,U.S.A.,North-America,-81.54863220201314,30.381376029329907
Jakarta,IDN,31078545.83621336,52797887.96960578,83876433.80581914,Indonesia,Asia,106.89465715247695,-6.101914823047763
Jakobstad,FIN,99715.43544836345,474332.71101090393,574048.1464592674,Finland,Northern-Europe,22.69020076811306,63.71062455011191
Jayapura,IDN,3870.662565140495,91.54587613878319,3962.2084412792783,Indonesia,Asia,140.7264870286022,-2.536967859793158
Jiangyin,CHN,183.7300417085749,1603.3043391372555,1787.0343808458304,China,Asia,120.1554413058036,31.939401228345435
Jiddah,SAU,22832558.23925692,10428916.917556094,33261475.15681301,Saudi Arabia,Middle-East,39.16040554615598,21.453336765224293
Jiddah Oil,SAU,29.106190010951945,0.013987271540674778,29.12017728249262,Saudi Arabia,Middle-East,39.53352762112168,20.644830668410076
Jimenez,PHL,247975.07182504365,38587.05227950481,286562.1241045485,Philippines,Asia,123.86089572946894,8.330056676743059
Jinzhou Wan,CHN,12316658.670174109,5784042.2497286815,18100700.91990279,China,Asia,121.01847867776193,40.75950573422145
Joensuu,FIN,6.620630433040222,30.87756508768469,37.49819552072491,Finland,Northern-Europe,29.74995054763922,62.58175520380113
Johor,MYS,18563525.473660067,22501644.91047037,41065170.38413043,Malaysia,Asia,103.946539943825,1.4457155370673964
Jose Terminal,VEN,177995.05091233112,10483927.59704648,10661922.647958811,Venezuela,Latin-America,-64.8703710788836,10.098565906654752
Joutseno,FIN,34.07756276353591,0.185260900086237,34.26282366362214,Finland,Northern-Europe,28.458905316914162,61.13209395314068
Ju Aymah LPG Terminal,SAU,423566.318895228,110703118.60349317,111126684.92238839,Saudi Arabia,Middle-East,50.00250368139483,26.87564923644428
Kaba Burnu,TUR,8832152.441867309,3204823.95789947,12036976.399766779,Turkey,Mediterranean,29.55893509236738,40.77306790531253
Kagoshima Ko,JPN,2366224.1978657716,117729.9182557212,2483954.116121493,Japan,Asia,130.5458089372961,31.533046626024202
Kakinada Bay,IND,16439608.166797595,2842529.638032024,19282137.80482962,India,Asia,82.29700790934642,16.96803700414477
Kaliningrad,RUS,261018.54932956136,1102001.7340824734,1363020.2834120349,Russia,Eastern-Europe,20.45369126199346,54.70007357923262
Kalmar,SWE,106.79075331784952,167.15455456385638,273.9453078817059,Sweden,Northern-Europe,16.369040013097386,56.66016842703954
Kalundborg,DNK,4565450.706951276,2524905.377326896,7090356.084278172,Denmark,Northern-Europe,11.081587831064345,55.668074243279904
Kamaishi Ko,JPN,13.589543205025151,11.78879916565706,25.378342370682212,Japan,Asia,141.89759031951039,39.26402113423952
Kamarajar Port,IND,30189018.19632415,2457807.9932229538,32646826.189547107,India,Asia,80.3467857641016,13.263762622008084
Kampong Saom,KHM,9149340.079118526,12716279.753944445,21865619.83306297,Cambodia,Asia,103.52334488494859,10.674444180264805
Kamsar,GIN,247.47621989619495,157610.69001125896,157858.16623115516,Guinea,Africa,-14.622001131510892,10.639340598585845
Kanazawa,JPN,217580.39604530105,231936.31335705923,449516.70940236025,Japan,Asia,136.61320565800648,36.6162815893274
Kanda,JPN,876054.8053942657,2565756.864248462,3441811.669642728,Japan,Asia,131.00473040650672,33.82366254603202
Kandalaksha,RUS,0.0065445003843635175,31.354168971379426,31.36071347176379,Russia,Eastern-Europe,32.40867471248912,67.13580684582182
Kandla,IND,50831357.04951339,9623419.28561146,60454776.33512485,India,Asia,70.2247109929842,23.015354356005922
Kao Hsiung,TWN,116625220.27625749,35052369.287396975,151677589.56365445,Taiwan,Asia,120.30930040517684,22.572122471214225
Karabiga,TUR,102.20510531933144,944.3364649102598,1046.5415702295913,Turkey,Mediterranean,27.16204466280199,40.41175743923695
Karachi,PAK,19082201.129614815,7955801.266275517,27038002.395890333,Pakistan,Asia,66.98512362862257,24.816297766470854
Karaikal Port,IND,9746118.090299105,339208.83761230705,10085326.927911412,India,Asia,79.85576598395454,10.838830279981233
Karatsu,JPN,5.5098678763010085,19.234910202623123,24.74477807892413,Japan,Asia,129.95355406484043,33.4777339268404
Karlshamn,SWE,1124988.013462085,1288879.3658035873,2413867.3792656725,Sweden,Northern-Europe,14.808307862296132,56.15202224055606
Karsto,NOR,48622.8427742673,18935630.637310725,18984253.480084993,Norway,Northern-Europe,5.497806853367826,59.271519205627634
Kashima Ko,JPN,54936585.938330926,3147612.8969365875,58084198.835267514,Japan,Asia,140.68267374859292,35.921756936643824
Kasim Terminal,IDN,5.744162897560001,21.137422829720087,26.88158572728009,Indonesia,Asia,131.02186709279326,-1.318856057215039
Kaskinen,FIN,152761.89553952287,192029.3271377882,344791.22267731105,Finland,Northern-Europe,21.215864101509435,62.35932982784432
Kaukas,FIN,20.428516850209046,21.45405667328385,41.882573523492894,Finland,Northern-Europe,28.241355341700704,61.06842777269116
Kavala,GRC,934780.4634619366,310758.27154106635,1245538.735003003,Greece,Mediterranean,24.410453522908117,40.917463377118075
Kavieng Harbor,PNG,39352.00759062456,463822.6634687515,503174.67105937604,Papua New Guinea,Oceania,150.7714132569447,-2.604957506821268
Kavkaz Oil Terminal,RUS,89217.77967373884,372538.48855662317,461756.268230362,Russia,Eastern-Europe,36.667674994963555,45.33844976361047
Kawasaki Ko,JPN,26957580.202021055,3757560.993384693,30715141.195405748,Japan,Asia,139.74937700235552,35.50521099478886
Kemaman Harbor,MYS,1475142.5325510176,4231172.891030937,5706315.423581955,Malaysia,Asia,103.46452871196468,4.249323842499969
Kemi,FIN,74.54344940150804,870.8930492377078,945.4364986392159,Finland,Northern-Europe,24.523314138353083,65.66299650595296
Kendari,IDN,31478.371403476816,55899.480170759016,87377.85157423583,Indonesia,Asia,122.60728080642757,-3.983735223686888
Kerch,UKR,105800.05181408384,76880.28267964294,182680.33449372678,Ukraine,Eastern-Europe,36.462335098071655,45.31944127288264
Khawr Fakkan,ARE,278344.68657430203,1032500.2156563363,1310844.9022306383,United Arab Emirates,Middle-East,56.36863332712537,25.354115654808577
Khoms,LBY,1016285.7692908201,727533.1526105161,1743818.9219013362,Libya,Africa,14.247448501016022,32.683782420247496
Khorramshahr,IRN,18782.73033575698,54889.04265837613,73671.7729941331,Iran,Middle-East,48.15827753549476,30.428156001306824
Kiel,DEU,1138234.1525883474,172421.90977302694,1310656.0623613745,Germany,Western-Europe,10.158930124173805,54.33897566104337
Kieta,PNG,2256.3023976148397,42233.56960150757,44489.871999122406,Papua New Guinea,Oceania,155.64068062726844,-6.2140883431827785
Kiire,JPN,6471197.141830743,304680.4473620444,6775877.589192788,Japan,Asia,130.55093801056023,31.387789790905007
Kikuma Ko,JPN,3233066.961558209,637672.3294801454,3870739.291038354,Japan,Asia,132.8591303074905,34.053952716716815
Kimbe,PNG,116813.02693344546,1228923.5241468803,1345736.5510803256,Papua New Guinea,Oceania,150.1762719486963,-5.531466403018216
King Fahd Port,SAU,2828412.7625040747,42339491.76832342,45167904.53082749,Saudi Arabia,Middle-East,38.3257316997168,23.89896181789269
King's Lynn,GBR,18.602290568576475,20.399003556531206,39.00129412510768,United Kingdom,Western-Europe,0.38924520939713947,52.76189504865078
Kingston,JAM,3267034.024134591,4563870.206491562,7830904.230626153,Jamaica,Caribbean,-76.78533233349447,17.958580244922548
Kingston Upon Hull,GBR,4020920.2329366575,2044482.3136292633,6065402.546565921,United Kingdom,Western-Europe,-0.2678925126426418,53.73974523215407
Kingstown,VCT,145470.94164830816,148927.841408941,294398.78305724915,Saint Vincent and the Grenadines,Caribbean,-61.231004992360475,13.150166300354769
Kinuura Ko,JPN,13160139.788103309,470472.0262458221,13630611.81434913,Japan,Asia,136.95949022933212,34.86173131881988
Kiribati,KIR,28369.74291556484,75833.88685994441,104203.62977550925,Kiribati,Oceania,-157.51139320291412,1.9777498151207227
Kirteh Oil Terminal,MYS,163562.92381070778,533173.9306801012,696736.8544908089,Malaysia,Asia,103.46300592089702,4.583442391113338
Kisarazu Ko,JPN,32263371.348197278,1477543.3617919597,33740914.709989235,Japan,Asia,139.86991061476937,35.35783669311954
Klaipeda,LTU,5837768.885914766,7782777.649393248,13620546.535308015,Lithuania,Eastern-Europe,21.127161907591194,55.68480437851739
Kobe,JPN,23793449.367728345,9200747.87665191,32994197.244380254,Japan,Asia,135.2202238397928,34.665447935331194
Kobenhavn,DNK,2367507.9302948024,882768.0229239705,3250275.953218773,Denmark,Northern-Europe,12.623244115681667,55.689745273607286
Kochi (Chochin),IND,5858165.281556075,1392987.7250451671,7251153.006601242,India,Asia,76.25942447285712,9.964414858433061
Kochi Ko,JPN,876022.6811883522,81375.54778435706,957398.2289727093,Japan,Asia,133.59124728428307,33.53112575008093
Koge,DNK,406408.5435057115,308658.9287347987,715067.4722405102,Denmark,Northern-Europe,12.198448343206925,55.458698938667936
Kokkala,FIN,810628.17599871,2890306.139813501,3700934.315812211,Finland,Northern-Europe,23.02950219893925,63.85877956585785
Koko,NGA,43864.71858552563,376930.5354894967,420795.25407502236,Nigeria,Africa,5.460556265955411,5.997462940439359
Kolding,DNK,461055.010388173,182418.38257109062,643473.3929592636,Denmark,Northern-Europe,9.490902697918608,55.49127752547588
Komatsushima,JPN,92.5836435913505,18.715963395242277,111.29960698659278,Japan,Asia,134.59804207717497,34.03965305727432
Koolan,AUS,77235.98534872224,599625.8938714161,676861.8792201383,Australia,Australia,123.74083038756824,-16.140944950597866
Koper,SVN,6141065.873433298,1377813.870311405,7518879.743744703,Slovenia,Mediterranean,13.737173195805081,45.55680786438253
Korsakov,RUS,178399.07277898423,3080513.3055226253,3258912.37830161,Russia,Eastern-Europe,142.8221264940905,46.61922477785278
Kota Baru,IDN,840094.0254901706,16501645.99975025,17341740.02524042,Indonesia,Asia,116.24677915766578,-3.2317893202779255
Kota Kinabalu,MYS,865016.6344801242,192250.445059825,1057267.0795399493,Malaysia,Asia,116.07849157015572,5.997254078291289
Kotka,FIN,908932.9182059005,3919289.5517558493,4828222.469961749,Finland,Northern-Europe,26.92466038696332,60.454102388916375
Krishnapatnam Port,IND,41155058.47088989,4167826.543655456,45322885.014545344,India,Asia,80.12513183610076,14.250252044478986
Kristiansand,NOR,1271270.2441818893,1169515.0964361571,2440785.3406180465,Norway,Northern-Europe,8.003841849989836,58.14177263137258
Kristiansund,NOR,350865.4332621219,802662.1086998531,1153527.541961975,Norway,Northern-Europe,7.717196789968035,63.09308535982997
Kuantan New Port,MYS,9790960.540972395,17582421.31472361,27373381.855696008,Malaysia,Asia,103.42627680846884,3.9793490430039444
Kuching,MYS,1087505.3808915003,913714.8514791684,2001220.2323706686,Malaysia,Asia,110.44755624462451,1.591524137958323
Kudamatsu,JPN,268.66566047584183,62.46987301360254,331.13553348944436,Japan,Asia,131.86867415844077,33.99584166596891
Kulevi Oil Terminal,GEO,136598.64051736722,306463.00014853233,443061.64066589955,Georgia,Eastern-Europe,41.639032251255415,42.27367523853609
Kunda,EST,442.367757544728,340.62348163794286,782.9912391826708,Estonia,Eastern-Europe,26.544543311690518,59.520358578689795
Kunsan,KOR,9280569.584288957,900480.545433479,10181050.129722435,South Korea,Asia,126.61796794913528,35.986494724379455
Kupang,IDN,10511.933560866592,108.18012002677553,10620.113680893368,Indonesia,Asia,123.52714991392128,-10.19664189982535
Kure,JPN,8778301.238210043,272038.28518607095,9050339.523396114,Japan,Asia,132.5729897979332,34.225162721449976
Kushiro Ko,JPN,1868556.2532167933,241177.88655805768,2109734.139774851,Japan,Asia,144.33590289857247,42.99066294537092
Kwajalein,MHL,1260378.5100958883,98736.61266515538,1359115.1227610437,Marshall Islands,Oceania,167.73346703714986,8.73383829357197
LNG Tangguh,IDN,30029.736926098056,3766490.4972876958,3796520.2342137937,Indonesia,Asia,133.1215869241807,-2.435763597601175
LOOP terminal,USA,9202472.24475998,594914.1430833683,9797386.387843348,U.S.A.,North-America,-90.02236943478368,28.860789423796803
La Baie (Port Alfred),CAN,54.37013263315273,35.11833714150233,89.48846977465506,Canada,North-America,-70.85771110463213,48.367313290544146
La Coruna,ESP,5692583.171530114,1486157.9094359942,7178741.080966108,Spain,Western-Europe,-8.442072935583361,43.35326036794614
La Guaira,VEN,2570962.7973035434,1334043.3124849587,3905006.109788502,Venezuela,Latin-America,-66.95158142389194,10.60546664746055
La Libertad,ECU,839779.0926554732,154910.39930908222,994689.4919645553,Ecuador,Latin-America,-80.82720224319641,-2.147427207972201
La Pallice,FRA,5941965.925423002,3218514.8385102176,9160480.763933219,France,Western-Europe,-1.2272979984191263,46.15812292474633
La Plata,ARG,229230.12671545686,1299286.3417544984,1528516.4684699553,Argentina,Latin-America,-57.89735059672328,-34.85006898000007
La Spezia,ITA,4898143.304299,4466767.492117901,9364910.796416901,Italy,Mediterranean,9.850645667316325,44.09125208842204
Lae,PNG,669481.7820491805,843925.4240827967,1513407.206131977,Papua New Guinea,Asia,146.9829707997735,-6.738654366735749
Lae,PNG,669481.7820491805,843925.4240827967,1513407.206131977,Papua New Guinea,Asia,146.984670030381,-6.739761574364538
Lafarge,IDN,12.43473621203418,12.222335855085083,24.657072067119262,Indonesia,Asia,95.24248746562014,5.451471094423554
Lagos,NGA,18074988.7507259,26444142.1335754,44519130.8843013,Nigeria,Africa,3.336198959941785,6.425039204912156
Lahad Datu,MYS,986228.0015900871,1704744.8303635772,2690972.8319536643,Malaysia,Asia,118.36233840083307,5.016082544943336
Lake Charles,USA,3872680.4302965016,5346604.464101259,9219284.89439776,U.S.A.,North-America,-93.29599462006662,30.17505468529406
Lakselv,NOR,206.87074926245847,7.9510860605860145,214.8218353230445,Norway,Northern-Europe,15.584266076913686,67.36231132587258
Lamu,KEN,84.44250886577115,421.13622535800675,505.57873422377793,Kenya,Africa,40.93562968641479,-2.2030655842733045
Lanqiao Port,CHN,131748681.78132235,3557820.5035130824,135306502.28483543,China,Asia,119.33682997699795,35.10082478079565
Larnaca,CYP,1179128.390962344,998977.8995062924,2178106.2904686364,Cyprus,Mediterranean,33.6471920327898,34.936482806057064
Larvik,NOR,48.07391775773047,83.36075667968974,131.4346744374202,Norway,Northern-Europe,10.045409958676583,59.038871429965745
Las Palmas,ESP,21754484.181104254,8513756.225749245,30268240.406853497,Spain,Western-Europe,-15.396814134057347,28.044980363325735
Lautoka Harbor,FJI,519562.76579758653,424740.3652488662,944303.1310464528,Fiji,Oceania,177.40407180080402,-17.632569671496633
Lazaro Cardenas,MEX,7863669.49156478,6733767.951205366,14597437.442770146,Mexico,Latin-America,-102.15957973298144,17.952395882549705
Le Legue,FRA,103741.63986008787,23826.910828114407,127568.55068820229,France,Western-Europe,-2.7260352333539406,48.533272332416644
Leith,GBR,108.67887595878817,16.56915790282731,125.24803386161548,United Kingdom,Western-Europe,-3.1763438538072646,55.98405696982263
Lele Harbor,FSM,7553.043622876629,1641.7985645026943,9194.842187379323,Micronesia,Oceania,162.95961417977605,5.35278859669428
Lerwick,GBR,7336.064298068451,20125.833329218545,27461.897627286995,United Kingdom,Western-Europe,-1.1515796216949534,60.15670064773103
Les Sables D' Olonne,FRA,162621.25936715992,160737.76224333176,323359.0216104917,France,Western-Europe,-1.7924034246394762,46.496706427811326
Levuka,FJI,1.2695555562168468,0.9276294556833342,2.197185011900181,Fiji,Oceania,178.83579923365542,-17.68742852037415
Lianyungang,CHN,85794842.53348503,10901966.12508908,96696808.6585741,China,Asia,119.44735552626945,34.74395915294917
Liepaja,LVA,434659.6208929669,1680262.3149482817,2114921.935841249,Latvia,Eastern-Europe,21.000278026163613,56.5372766046431
Limassol,CYP,2022941.8800113546,1488908.07835717,3511849.958368525,Cyprus,Mediterranean,33.01892413618442,34.64794933444826
Limerick,IRL,318019.59998448595,311077.3970415548,629096.9970260407,Ireland,Western-Europe,-8.642284884725631,52.65958544030891
Linden,GUY,65.55375140172389,478.6153786625377,544.1691300642616,Guyana,Latin-America,-58.30315890230102,5.999950690542566
Lingkas,IDN,11715.137438562611,583198.8915887269,594914.0290272895,Indonesia,Asia,117.56481895296852,3.3146822700605374
Lirquen,CHL,560558.5004663131,4827733.9451553365,5388292.44562165,Chile,Latin-America,-72.98200378656695,-36.70606417642158
Lisboa,PRT,6407243.691587849,3659584.332832636,10066828.024420485,Portugal,Western-Europe,-9.132081034079993,38.68381637868019
Liverpool,GBR,30296377.357048437,4939132.286669132,35235509.64371757,United Kingdom,Western-Europe,-3.0184102029511672,53.41989450178822
Livorno,ITA,17761756.090253387,4053462.6319216723,21815218.722175058,Italy,Mediterranean,10.302829714811642,43.562922122140456
Lobito,AGO,353387.6031027142,2016275.572350863,2369663.175453577,Angola,Africa,13.570700172447943,-12.337814775342295
Lome,TGO,4843856.341339924,2425730.3967655073,7269586.738105431,Toga,Africa,1.2823730420624113,6.13870629091435
London,GBR,10835338.666159905,2175408.016884039,13010746.683043946,United Kingdom,Western-Europe,0.09735452147133104,51.49425575748219
London Gateway,GBR,2432.287071024763,676.4469056993291,3108.733976724092,United Kingdom,Western-Europe,0.496846072499629,51.5128479675081
Londonderry,GBR,2854395.605405346,488867.1838061342,3343262.7892114804,United Kingdom,Western-Europe,-7.24828154750488,55.04498715431681
Longkou Gang,CHN,25131904.837971464,1687143.9265279775,26819048.76449944,China,Asia,120.27553432534754,37.65664430391606
Longyan Port,CHN,367678.9312805879,410773.1708113101,778452.102091898,China,Asia,122.66516267195223,37.40287925785697
Lorient,FRA,709230.2561188444,73956.17482987986,783186.4309487243,France,Western-Europe,-3.344420786891239,47.73247953533677
Los Angeles,USA,53227968.00381274,15020232.124828825,68248200.12864156,U.S.A.,North-America,-118.2332744617692,33.74423517564738
Luanda,AGO,7792801.847851892,36188887.528990135,43981689.37684203,Angola,Africa,13.268167277698302,-8.778064712473903
Luba,GNQ,139935.6485789664,567054.2907572894,706989.9393362558,Equatorial Guinea,Africa,8.550793055382552,3.4682851025583217
Lubeck-Travemunde,DEU,1092446.6698509518,455898.9694583784,1548345.6393093301,Germany,Western-Europe,10.864753228876173,53.949510829099744
Luganville,VUT,53043.00103771217,20233.645872508838,73276.64691022101,Vanuatu,Oceania,167.19225876677746,-15.517205910474255
Lulea,SWE,1019069.7183417947,2834130.5685989014,3853200.286940696,Sweden,Northern-Europe,22.282423357728216,65.53733541423823
Lumut,BRN,16858.813262417603,3706887.816025131,3723746.6292875484,Brunei,Asia,114.43860877181389,4.709824976813137
Lumut,MYS,18748478.577755902,42879055.410654694,61627533.98841059,Malaysia,Asia,100.62342668281701,4.207745369282229
Macau,MAC,100524298.39030929,133367.0624640257,100657665.45277332,Macau,Asia,113.56242226368484,22.16998500439825
Mackay,AUS,1406294.8902822223,1809913.9830126886,3216208.873294911,Australia,Australia,149.2286872369653,-21.109129090423508
Madang,PNG,68372.83142791352,223350.6190107343,291723.4504386478,Papua New Guinea,Asia,145.81083869573362,-5.213188576115389
Madre De Deus,BRA,869630.6060061342,3829351.244752481,4698981.850758615,Brazil,Latin-America,-38.623377790061454,-12.754241847345888
Magam Ruhunupura Mahinda Rajapaksa Port,LKA,949252.1173395426,75831.52399656418,1025083.6413361068,Sri Lanka,Asia,81.09931752132096,6.126116007887758
Magdalla,IND,44033080.85231239,5504415.6124823615,49537496.464794755,India,Asia,72.68414685989755,21.1058799255708
Mahajanga,MDG,25007.75285059623,7338.408599210329,32346.161449806557,Madagascar,Africa,46.30285681576183,-15.712467927095718
Mailiao,TWN,36090833.04250911,3768186.0852778605,39859019.12778697,Taiwan,Asia,120.19069032716376,23.78770183823127
Maizuro Ko,JPN,479.17455248149184,63.73390811717734,542.9084605986692,Japan,Asia,135.3409976788749,35.48593127100213
Majuro Atoll,MHL,3470454.612618251,176597.87072527382,3647052.4833435244,Marshall Islands,Oceania,171.3646813282716,7.096532738829817
Makhachkala Port,RUS,0.06810408721337717,65.88887165457518,65.95697574178855,Russia,Eastern-Europe,47.487115843297396,43.00106648496974
Malabo,GNQ,593422.0529352766,13389666.633227611,13983088.686162887,Equatorial Guinea,Africa,8.737834001382202,3.773219307989677
Malaga,ESP,1099829.3824821047,626917.7303529152,1726747.1128350198,Spain,Mediterranean,-4.421971897198486,36.709267140600026
Malai,FJI,9873.16368866666,130664.88805254483,140538.0517412115,Fiji,Oceania,179.36922503675189,-16.353640251282606
Malakal Harbor,PLW,53822.77681545515,1220.0006479811332,55042.77746343629,Palau,Oceania,134.45529933277714,7.332002104688464
Male,MDV,2309330.361932685,93391.34050801325,2402721.702440698,Maldives,Asia,73.49130426856117,4.199673736864345
Malmo,SWE,2003810.7093111333,1106193.1685946407,3110003.877905774,Sweden,Northern-Europe,13.017543479181542,55.62802065270463
Malongo,AGO,4094.371018676692,86713.22852427002,90807.59954294671,Angola,Africa,12.196117817786154,-5.397395815577081
Maloy,NOR,18.78900581324647,17.057205435257075,35.84621124850354,Norway,Northern-Europe,5.128057915986249,61.93745646639336
Manaus,BRA,1644528.413089025,194970.98440704533,1839499.3974960705,Brazil,Latin-America,-59.949852066214014,-3.1620604719227976
Manila,PHL,54116312.541510545,27412799.17781775,81529111.7193283,Philippines,Asia,120.79498461925688,14.573992578921846
Manokwari Road,IDN,36939.366119114966,3628785.1868766183,3665724.5529957335,Indonesia,Asia,134.0399003966668,-0.9208695132934869
Manta,ECU,1663059.211484657,1158893.475186625,2821952.686671282,Ecuador,Latin-America,-80.7131715335259,-0.9416682606434719
Mantyluoto,FIN,969805.7514523667,1162962.4297891108,2132768.1812414774,Finland,Northern-Europe,21.439346016652053,61.613525025988196
Manzanillo,MEX,10400569.086086508,8680873.143935964,19081442.23002247,Mexico,Latin-America,-104.30307470210654,19.045406078178868
Manzanillo,PAN,2351831.1146563645,975013.3002987615,3326844.414955126,Panama,Latin-America,-79.88673200944665,9.360503646778435
Map Ta Phut,THA,42341375.14161014,14179317.16825563,56520692.30986577,Thailand,Asia,101.15236222857916,12.6609112825225
Maputo,MOZ,4643012.73930022,8392255.540943207,13035268.280243427,Mozambique,Africa,32.53916331826376,-25.969634366464906
Maracaibo,VEN,277965.23421823164,1537350.607330297,1815315.8415485285,Venezuela,Latin-America,-71.60514846489083,10.6414760849165
Mariel,CUB,689758.6437521619,200658.36889325723,890417.0126454191,Cuba,Caribbean,-82.76053822799543,22.999902072528464
Marin,ESP,853206.7090792534,122989.68080778705,976196.3898870405,Spain,Western-Europe,-8.69730845324632,42.39881568321476
Marina Di Carrara,ITA,268.41115406061465,344.27643435297966,612.6875884135943,Italy,Mediterranean,10.042670090218921,44.032147600753774
Mariupol,UKR,657938.9710103471,4763496.44533391,5421435.416344257,Ukraine,Eastern-Europe,37.503900223805466,47.054025395577035
Markenes,NOR,65.72333312187064,4.635220354137051,70.35855347600769,Norway,Northern-Europe,19.361247850591145,69.23656191656397
Marmagao,IND,19658846.964741815,2348030.477722073,22006877.44246389,India,Asia,73.80735640875793,15.409640152325668
Marsa Sabratah,LBY,36546.61099419303,2642509.73718613,2679056.3481803234,Libya,Africa,12.24658642786107,32.878274160934474
Marsaxlokk,MLT,3160595.2761999005,799414.5979780211,3960009.8741779216,Malta,Mediterranean,14.543787229768757,35.82669474962385
Marseille,FRA,946499.2852763998,1563316.9508420585,2509816.236118458,France,Mediterranean,5.346629849985812,43.32315779060131
Marsh Harbor,BHS,3406.247851972983,1534.7802595347964,4941.02811150778,Bahamas,Caribbean,-77.06272772895558,26.54374829411521
Marugame Ko,JPN,1449183.797690915,221378.7365959413,1670562.5342868562,Japan,Asia,133.77321018388815,34.29646935891837
Masan,KOR,0.1601043830293363,566.9573084480608,567.1174128310901,South Korea,Asia,128.59079992441258,35.18412822595261
Masao,PHL,5.8525848108300424,6.434425332705439,12.287010143535483,Philippines,Asia,125.85861340331873,9.494107828336091
Matanzas,CUB,99722.78577483291,51013.398730854715,150736.18450568762,Cuba,Caribbean,-81.53761436892636,23.06072639858986
Matsusaka,JPN,161.04290717995505,163.90287302957722,324.94578020953224,Japan,Asia,136.54194719136322,34.64834479386502
Matsuyama,JPN,834455.5894639608,174959.78578667415,1009415.375250635,Japan,Asia,132.69492950156638,33.810438301844194
Matthew Town,BHS,64498.953835832945,61191.1026331487,125690.05646898164,Bahamas,Caribbean,-73.66853998991493,21.008093221439797
Maumere,IDN,5.2686177553110385,68.58532405367136,73.8539418089824,Indonesia,Asia,122.23718210216877,-8.6244535523396
Mazatlan,MEX,1636059.0467257644,896027.400239742,2532086.4469655063,Mexico,Latin-America,-106.41026606620578,23.189539470634998
Mbulo,SLB,938.7754140260464,12435.056647253514,13373.83206127956,Solomon Islands,Oceania,160.64866226407668,-9.63808543357328
Medway,GBR,390.3701297193874,49.11131027119148,439.4814399905789,United Kingdom,Western-Europe,0.7452941193429828,51.43531276696483
Medway City,GBR,73.78453128032015,2.699860991634857,76.48439227195502,United Kingdom,Western-Europe,0.5133461763983214,51.392044925796625
Mejillones,CHL,8839946.645202715,6609639.688673313,15449586.333876029,Chile,Latin-America,-70.40605288856243,-23.068917801192686
Melbourne,AUS,7946203.560676277,4836131.833738391,12782335.394414667,Australia,Australia,144.91341994626057,-37.83519282067609
Menominee,USA,2353.379885185795,1568.5091673737122,3921.889052559507,U.S.A.,North-America,-87.5927222150371,45.09547763394705
Merak Mas Terminal,IDN,9394824.306193056,10418705.072044225,19813529.37823728,Indonesia,Asia,106.10001079534257,-5.941636439592424
Merauke,IDN,6.113169390552857,36.735572584516326,42.84874197506918,Indonesia,Asia,140.38134569324313,-8.473712756355013
Mersa Sfax,TUN,3406224.3576480774,1126638.2297867788,4532862.587434856,Tunisia,Africa,10.76961985579142,34.724911139393086
Mersa Tobruq,LBY,296488.68429430143,11758593.212714119,12055081.89700842,Libya,Africa,23.988563457198786,32.070355327544576
Mersin,TUR,6876395.198825366,4325150.609429177,11201545.808254544,Turkey,Mediterranean,34.64468646253938,36.79518784395411
Miami,USA,4868816.640956385,2076995.090996476,6945811.731952861,U.S.A.,North-America,-80.19528554795146,25.769177913641343
Mikawa,JPN,2585113.470839751,2352190.57209585,4937304.0429356005,Japan,Asia,137.29689486945338,34.709615777036284
Milazzo,ITA,13402403.445124127,1131268.5168253444,14533671.961949471,Italy,Mediterranean,15.263505484387716,38.21363037769039
Milford Haven,GBR,30297084.817591432,9129358.95688037,39426443.774471804,United Kingdom,Western-Europe,-5.020471285979246,51.6970067212492
Milner Bay,AUS,83049.33650344025,5721936.842139691,5804986.178643132,Australia,Australia,136.41893828325453,-13.858179836535554
Milwaukee,USA,237964.8622347436,48107.54777388714,286072.4100086307,U.S.A.,North-America,-87.89291943716971,43.01943778766263
Mina Al Ahmadi,KWT,26880265.97224969,93610534.49817103,120490800.47042072,Kuwait,Middle-East,48.158078377825746,29.07276586772993
Mina Jabal Ali,ARE,26420638.690153167,23523614.2313162,49944252.92146937,United Arab Emirates,Middle-East,55.05478211500699,25.007358961173885
Mina Qabus,OMN,6.27593171947298,8.775670183971267,15.051601903444247,Oman,Middle-East,58.567304381279435,23.627433095902443
Mina Raysut,OMN,4649725.970139466,23011388.571382802,27661114.54152227,Oman,Middle-East,54.00766066736667,16.938792360792416
Mina Saqr,ARE,2406558.0175772216,32576160.036703896,34982718.054281116,United Arab Emirates,Middle-East,56.051710071324564,25.96439363353301
Mina Tarabulus (Tripoli),LBY,1244133.7651855457,682555.113839083,1926688.8790246285,Libya,Africa,13.201592074231552,32.90597537115696
Mishima-Kawanoe Ko,JPN,2718944.6195665086,88922.51282003587,2807867.1323865443,Japan,Asia,133.55221206031757,34.00466410734461
Misratah,LBY,2886391.3964198423,1831816.723327786,4718208.119747628,Libya,Africa,15.228916907374659,32.357612490808634
Mitsiwa Harbor,ERI,263608.68417221075,255195.54906596144,518804.2332381722,Eritrea,Africa,39.46153076631569,15.600510033047817
Mizushima Ko,JPN,25797975.970837086,5027098.6730903,30825074.643927388,Japan,Asia,133.72684553779843,34.48581319664202
Mo Inlet,NOR,524099.4604873249,3528205.173803642,4052304.6342909667,Norway,Northern-Europe,14.098167365997591,66.30665850106024
Mobile,USA,9871802.782139799,8495742.301474454,18367545.083614253,U.S.A.,North-America,-88.05924221540512,30.625182386007957
Moen,FSM,7445.49426550282,605.8089857843476,8051.303251287168,Micronesia,Oceania,151.83941922349734,7.446446869807928
Mohammedia,MAR,2142998.207073395,123173.48645510443,2266171.6935284995,Morocco,Africa,-7.390272106294544,33.72201269887172
Mombasa,KEN,13430656.446471855,2032570.3979762916,15463226.844448147,Kenya,Africa,39.63746780980541,-4.060316996454481
Monfalcone,ITA,2808862.391110633,542787.2104773398,3351649.6015879726,Italy,Mediterranean,13.545229587632,45.78878380090904
Mongla,BGD,1327047.4257295316,256406.10728515298,1583453.5330146844,Bangladesh,Asia,89.58618538108803,22.494568191753324
Mongstad,NOR,1062337.7813322905,56141596.7018793,57203934.48321159,Norway,Northern-Europe,5.046282510800856,60.83202481631434
Monopoli,ITA,249465.35246907355,36876.55651197122,286341.9089810448,Italy,Mediterranean,17.30472389943968,40.95712658345746
Monrovia,LBR,2180197.153704237,217661.82740882228,2397858.9811130594,Liberia,Africa,-10.801493002665511,6.3455527256831825
Montego Bay,JAM,189342.75056483402,221403.0761682088,410745.82673304284,Jamaica,Caribbean,-77.94098595591029,18.460290643221175
Montevideo,URY,7442383.812142538,6193566.590599381,13635950.40274192,Uruguay,Latin-America,-56.214839172226675,-34.8999100548603
Montoir,FRA,16546263.958889846,2463916.6082895324,19010180.567179378,France,Western-Europe,-2.123870049083207,47.30144022176756
Montreal,CAN,3707917.3573637153,5440121.411516264,9148038.76887998,Canada,North-America,-73.52966417570099,45.54235479524393
Morehead City,USA,1565673.1816392369,357138.7177010104,1922811.8993402473,U.S.A.,North-America,-76.69019793467533,34.7051605562321
Moroni,COM,151147.005518735,39401.27249937375,190548.27801810874,Comoros,Africa,43.24731359811753,-11.704311076057184
Moss,SWE,269.0504232558817,207.40117860875102,476.4516018646327,Sweden,Northern-Europe,10.66987867148205,59.44461993671359
Mostaganem,DZA,2303426.8876363705,480817.3024060811,2784244.1900424515,Algeria,Africa,0.0758467141914115,35.93386876555044
Motril,ESP,468805.3624271149,298586.90142773493,767392.2638548499,Spain,Mediterranean,-3.5200356925425584,36.719235902094795
Moutsamoudu,COM,204593.46295589712,23595.149029533408,228188.61198543053,Comoros,Africa,44.40495726682922,-12.145062763097188
Muara Harbor,BRN,3146665.5133219766,9965346.523383236,13112012.036705213,Brunei,Asia,115.10442193913428,5.013844972121651
Muhamamad Bin Qasim,PAK,20677560.198372718,5695482.651795139,26373042.850167856,Pakistan,Asia,67.33730696129737,24.779888938248135
Mumbai (bonbay),IND,63864262.28230493,18232909.67699415,82097171.95929907,India,Asia,72.94559574948748,18.87996854756648
Mundra,IND,85994443.76876971,17349909.9156758,103344353.68444552,India,Asia,69.64649329524096,22.751890776993
Muqdisho,SOM,753399.8580824245,25102.069185883076,778501.9272683075,Somalia,Africa,45.33827701741724,2.0249761656679914
Murmansk,RUS,1395981.903650093,29989904.485111143,31385886.388761237,Russia,Eastern-Europe,33.30211418902277,69.09272182364407
Muroran Ko,JPN,16019428.37886367,456221.3516115879,16475649.730475258,Japan,Asia,140.96621845145597,42.34556920453535
Muuga-Port of Talinn,EST,1455399.5613320016,3493232.205672562,4948631.7670045635,Estonia,Eastern-Europe,24.969792657809265,59.49718548036515
Mykolayiv,UKR,1617411.5268974088,15949385.488166375,17566797.015063785,Ukraine,Eastern-Europe,31.99574715289624,46.93675485817461
Naantali,FIN,1040243.5596054335,354195.6118980385,1394439.171503472,Finland,Northern-Europe,22.047036040526965,60.45138372571379
Nacala,MOZ,1584851.2747803912,365110.9994078232,1949962.2741882144,Mozambique,Africa,40.664113690531124,-14.545779241805743
Nagasaki,JPN,245897.28394293436,121424.5418082921,367321.82575122645,Japan,Asia,129.83430943600555,32.708832727710636
Nagoya Ko,JPN,56228839.41047239,13998547.899940215,70227387.31041262,Japan,Asia,136.83882888555488,35.02867384878766
Nakhodka,RUS,840608.6564533613,35057685.46502446,35898294.12147782,Russia,Eastern-Europe,132.895922269992,42.80381800018218
Namibe,AGO,569.0490145637106,4447.687491999984,5016.736506563694,Angola,Africa,12.14016344810084,-15.16687913934595
Namsos,NOR,46.67160777427417,7.746208159766365,54.41781593404053,Norway,Northern-Europe,11.507519337169228,64.4578348831516
Nanao Ko,JPN,226.1633598963083,84.81073231266647,310.97409220897475,Japan,Asia,136.979999656229,37.0653624165744
Nantes,FRA,612433.9866577492,857721.7036309396,1470155.6902886888,France,Western-Europe,-1.6096274117777416,47.19351403999163
Nantong,CHN,45491857.50348049,10286800.463971792,55778657.96745228,China,Asia,120.84566677035622,31.978036673512065
Naoetsu Ko,JPN,1974598.061326406,143157.54284972057,2117755.6041761264,Japan,Asia,138.26664146527244,37.201533124117
Napier,NZL,920936.9971139143,4481704.338714995,5402641.33582891,New Zealand,Oceania,176.92059919171345,-39.473702498433994
Napoli,ITA,7982123.811378778,2583166.811543447,10565290.622922225,Italy,Mediterranean,14.272251402945127,40.83886305292329
Narvik,NOR,221.4855030385725,1079.590043170197,1301.0755462087695,Norway,Northern-Europe,17.400521484860775,68.43162158772796
Nasipit Port,PHL,16.485950208413026,9.267050982202854,25.75300119061588,Philippines,Asia,125.33501395485378,8.98129254910262
Nassau,BHS,696054.4524043457,207661.55834156447,903716.0107459102,Bahamas,Caribbean,-77.34012684562234,25.08026456469828
Natal,BRA,226513.91129868952,479837.451589718,706351.3628884075,Brazil,Latin-America,-35.20428540180965,-5.767734450622309
Nauru,NRU,12333.234662183428,120103.1088137387,132436.34347592213,Nauru,Oceania,166.9013556379713,-0.5306582290270002
Navlakhi,IND,1.290534452625351,1.2572719953282907,2.5478064479536418,India,Asia,70.44708295672952,22.953612093637382
Neiafu,TON,7252.606189633201,592.1050496585794,7844.711239291781,Tonga,Oceania,-173.9856464170649,-18.652297669269608
Nelson,NZL,584161.7115026705,1895161.27294784,2479322.9844505107,New Zealand,Oceania,173.27538887450197,-41.25770446665351
Nemrut Limani Bay,TUR,13989721.132965751,5939293.724736367,19929014.857702117,Turkey,Mediterranean,26.914656096930315,38.7636937295089
Nepoui,NCL,1869.10845179322,472232.2435153338,474101.351967127,New Caledonia,Oceania,164.98971538531458,-21.334806559883724
New Amsterdam,GUY,8336.255078868824,1479055.789730872,1487392.044809741,Guyana,Latin-America,-57.51942983554447,6.254820735256194
New Haven,USA,1032248.4993164656,294874.5104024196,1327123.0097188852,U.S.A.,North-America,-72.88905357967549,41.27190014771856
New Holland,GBR,86.99477049349166,22.035937925120407,109.03070841861206,United Kingdom,Western-Europe,-0.36167081112018684,53.70547095380212
New Mangalore,IND,27800203.45563698,4749989.4930143235,32550192.948651303,India,Asia,74.81678980755458,12.926468880022862
New Orleans,USA,39998461.55988268,40978127.435201734,80976588.9950844,U.S.A.,North-America,-90.09129858062225,29.851775362902995
New Plymouth,NZL,546208.7651737026,2076713.6847805793,2622922.449954282,New Zealand,Oceania,174.03623843684286,-39.05518760344111
New Westminster,CAN,3421186.732890077,2558641.3888192717,5979828.121709349,Canada,North-America,-122.97261731951272,49.15845634334501
New York-New Jersey,USA,44090794.43536166,11925890.524972446,56016684.96033411,U.S.A.,North-America,-74.11150792831185,40.657245589417194
Newcastle,AUS,2743197.709555484,145033536.50327843,147776734.2128339,Australia,Australia,151.77123362758556,-32.898685204233736
Newport,GBR,147.59604759333092,107.51576551371436,255.1118131070453,United Kingdom,Western-Europe,-2.9794871254629838,51.558509959745834
Newport News,USA,1704021.3356909468,10484689.404586375,12188710.740277322,U.S.A.,North-America,-76.42550028809246,36.97304730413273
Nghe Tinh,VNM,1031048.794044592,3037972.253967371,4069021.048011963,Vietnam,Asia,105.78675503974668,19.253710704805968
Nghe Tinh,VNM,1031048.794044592,3037972.253967371,4069021.048011963,Vietnam,Asia,105.71945356121611,18.842092047975285
Nice,FRA,23864.912917093454,76016.59231503785,99881.50523213131,France,Mediterranean,7.2889149261769495,43.69226284128824
Nicholls Town,BHS,740.6608428059776,209.78452276149943,950.445365567477,Bahamas,Caribbean,-78.02337217236946,25.17619274120298
Niigata Ko,JPN,4370365.968847735,314546.6376696094,4684912.606517345,Japan,Asia,139.15970859007976,37.967396275424306
Niihama,JPN,7833394.693973072,1210078.6719419623,9043473.365915034,Japan,Asia,133.22277152606082,33.95296047335205
Ningbo,CHN,159582389.94484162,78021871.86603792,237604261.81087953,China,Asia,121.88275443475413,29.89315925948817
Norfolk,USA,9082277.114409553,18008923.79755959,27091200.91196914,U.S.A.,North-America,-76.31952736316549,36.864294182720016
Norrkoping,SWE,1551716.5382373272,2504508.261368841,4056224.799606168,Sweden,Northern-Europe,16.23065240997117,58.61308553043908
North Ain Sukhna Port,EGY,8826093.868819317,3115305.7650871035,11941399.63390642,Egypt,Africa,32.36223301973798,29.621395554284195
Noshiro Ko,JPN,266.2559293847746,68.4414835119558,334.6974128967304,Japan,Asia,139.9947311386121,40.20151330698605
Nouadhibou,MRT,745612.4593644078,8937532.939334689,9683145.398699097,Mauritania,Africa,-17.018280149609986,20.85526668613302
Nouakchott,MRT,2127090.5042676846,424142.91000450903,2551233.414272194,Mauritania,Africa,-16.028778277548163,17.987125997479364
Noumea,NCL,2085357.8237575565,2319541.756590709,4404899.580348265,New Caledonia,Oceania,166.4213527151842,-22.26477136502851
Novorossiysk,RUS,5209516.176142239,81603941.23217279,86813457.40831503,Russia,Eastern-Europe,37.77495544659748,44.69543251183486
Nowshahr Port,IRN,283.94112846198044,434.31031462256766,718.2514430845481,Iran,Asia,51.511296458531625,36.67565850172304
Nuevitas Bay,CUB,226914.33316999907,40227.51556198864,267141.8487319877,Cuba,Caribbean,-77.21753922279201,21.55092926326657
Nuku Alofa,TON,61775.24835928338,6610.794646425854,68386.04300570923,Tonga,Oceania,-175.17851058924194,-21.135269475633663
Nyborg,DNK,46.262492367477215,691.9073594612976,738.1698518287748,Denmark,Northern-Europe,10.794013359607451,55.299331682018156
Nynashamn,SWE,1510883.317426745,437195.10284560063,1948078.4202723457,Sweden,Northern-Europe,17.971075674281643,58.9196487154381
Oakland,USA,6765805.976722669,12537658.579161543,19303464.555884212,U.S.A.,North-America,-122.31922519186494,37.80316282196179
Ocho Rios,JAM,42047.16988548487,44557.87088079987,86605.04076628474,Jamaica,Caribbean,-77.114874026785,18.41012746238658
Odda,NOR,245233.65623503586,384135.9790867354,629369.6353217713,Norway,Northern-Europe,6.5459816976055,60.083444342452374
