fid,port_name,country,continent,lat,lon,INDEX_NO,REGION_NO,PORT_NAME_2,COUNTRY_2,LATITUDE,LONGITUDE,LAT_DEG,LAT_MIN,LAT_HEMI,LONG_DEG,LONG_MIN,LONG_HEMI,PUB,CHART,HARBORSIZE,HARBORTYPE,SHELTER,ENTRY_TIDE,ENTRYSWELL,ENTRY_ICE,ENTRYOTHER,OVERHD_LIM,CHAN_DEPTH,ANCH_DEPTH,CARGODEPTH,OIL_DEPTH,TIDE_RANGE,MAX_VESSEL,HOLDGROUND,TURN_BASIN,PORTOFENTR,US_REP,ETAMESSAGE,PILOT_REQD,PILOTAVAIL,LOC_ASSIST,PILOTADVSD,TUGSALVAGE,TUG_ASSIST,PRATIQUE,SSCC_CERT,QUAR_OTHER,COMM_PHONE,COMM_FAX,COMM_RADIO,COMM_VHF,COMM_AIR,COMM_RAIL,CARGOWHARF,CARGO_ANCH,CARGMDMOOR,CARBCHMOOR,CARICEMOOR,MED_FACIL,GARBAGE,DEGAUSS,DRTYBALLST,CRANEFIXED,CRANEMOBIL,CRANEFLOAT,LIFT_100_,LIFT50_100,LIFT_25_49,LIFT_0_24,LONGSHORE,ELECTRICAL,SERV_STEAM,NAV_EQUIP,ELECREPAIR,PROVISIONS,WATER,FUEL_OIL,DIESEL,DECKSUPPLY,ENG_SUPPLY,REPAIRCODE,DRYDOCK,RAILWAY,n,distance,feature_x,feature_y,nearest_x,nearest_y
"1",Abbot Point,Australia,Australia,-19.8937552472355,148.07762043732,53380.000000,53290.000000,TOWNSVILLE,AU,-19.266667,146.816667,19.000000,16.000000,S,146.000000,49.000000,E,"127",74216/37,S,CB,F,N,N,N,Y,N,J,L,J,J,2.000000,L,Y,Y,Y,N,Y,Y,Y,,Y,N,Y,Y,Y,,Y,Y,Y,,Y,Y,Y,,,,,Y,Y,,Y,Y,Y,,,Y,,,Y,,,Y,Y,,Y,Y,,Y,Y,B,,M,"1",1.40827713877824,148.07762043732,-19.8937552472355,146.816666666667,-19.2666666666667
"2",Abenra,Denmark,Northern-Europe,55.0425424841465,9.42813655215102,30100.000000,30020.000000,ABENRA,DK,55.050000,9.433333,55.000000,3.000000,N,9.000000,26.000000,E,"194","44062",S,CB,G,Y,N,,Y,,J,A,M,K,2.000000,L,Y,Y,Y,N,Y,Y,Y,Y,,,Y,,Y,Y,Y,Y,Y,,Y,Y,,,,,,Y,Y,,Y,,Y,,,,,Y,Y,,,,,Y,Y,Y,Y,,,A,,S,"1",0.00908961370805618,9.42813655215102,55.0425424841465,9.43333333333333,55.05
"3",Aberdeen,U.S.A.,North-America,46.9659822269492,-123.847752483965,17060.000000,16000.000000,ABERDEEN,US,46.983333,-123.816667,46.000000,59.000000,N,123.000000,49.000000,W,CP07,"18502",S,RN,E,N,N,N,Y,Y,L,,K,L,8.000000,,,,Y,,,Y,,,Y,,,Y,,,Y,Y,Y,Y,Y,Y,,,,,,Y,Y,,,Y,Y,,,,Y,,Y,N,N,N,Y,Y,Y,Y,Y,Y,Y,C,,M,"1",0.0356004063158015,-123.847752483965,46.9659822269492,-123.816666666667,46.9833333333333
"4",Aberdeen,United Kingdom,Western-Europe,57.1399291195259,-2.07661676756875,32220.000000,31870.000000,ABERDEEN,GB,57.150000,-2.083333,57.000000,9.000000,N,2.000000,5.000000,W,"141","35013",M,RB,G,Y,N,N,,Y,N,K,K,M,4.000000,L,Y,,Y,N,Y,Y,Y,,Y,,Y,Y,Y,,Y,Y,,Y,Y,Y,Y,,,,,Y,Y,,Y,Y,Y,,Y,Y,Y,Y,Y,Y,,Y,Y,Y,Y,Y,Y,Y,Y,C,S,,"1",0.012105159610376,-2.07661676756875,57.1399291195259,-2.08333333333333,57.15
"5",Abidjan,Cote d'Ivoire,Africa,5.28395622253262,-4.01090831712434,46000.000000,45960.000000,ABIDJAN,CI,5.250000,-4.016667,5.000000,15.000000,N,4.000000,1.000000,W,"123","57064",L,LC,E,Y,Y,N,Y,Y,H,A,H,K,1.000000,L,Y,Y,Y,Y,Y,Y,Y,,Y,N,Y,Y,Y,Y,Y,,Y,Y,Y,Y,Y,Y,,,,Y,Y,,N,Y,,Y,Y,,Y,,Y,Y,N,Y,Y,Y,Y,Y,Y,Y,Y,B,S,,"1",0.0344410167988197,-4.01090831712434,5.28395622253262,-4.01666666666667,5.25
"6",Abu Zaby,United Arab Emirates,Middle-East,24.6124328776151,54.5636829951391,48279.000000,48260.000000,UMM AN NAR,AE,24.450000,54.483333,24.000000,27.000000,N,54.000000,29.000000,E,"172","62444",V,RN,G,Y,,,Y,Y,J,,L,,1.000000,M,N,N,Y,,Y,Y,Y,,,,Y,Y,Y,,,,Y,Y,,,Y,Y,,,,,,,N,Y,,,,Y,,,,,,,,N,N,N,N,N,N,N,,,"1",0.181219501937902,54.5636829951391,24.6124328776151,54.4833333333333,24.45
"7",Acajutla,El Salvador,Latin-America,13.5754400732541,-89.8296722590051,15640.000000,15590.000000,ACAJUTLA,SV,13.583333,-89.833333,13.000000,35.000000,N,89.000000,50.000000,W,"153","21524",V,CB,P,N,N,N,N,N,,C,J,H,2.000000,L,Y,,Y,N,Y,Y,Y,,Y,N,Y,,N,Y,Y,Y,Y,Y,N,Y,Y,,,,,Y,Y,,N,Y,Y,,,Y,Y,,Y,N,N,N,N,Y,Y,Y,,,,C,,S,"1",0.00870097810110766,-89.8296722590051,13.5754400732541,-89.8333333333333,13.5833333333333
"8",Acapulco,Mexico,Latin-America,16.8428181115192,-99.8724080961647,15760.000000,15700.000000,ACAPULCO,MX,16.850000,-99.933333,16.000000,51.000000,N,99.000000,56.000000,W,"153","21401",M,CN,E,,,,Y,,,A,J,N,0.000000,L,Y,,Y,N,Y,Y,Y,,,N,N,Y,,Y,,,Y,Y,Y,Y,Y,Y,,,,Y,Y,,N,Y,,,,,,Y,Y,Y,N,N,N,Y,Y,,Y,,,C,,S,"1",0.0613470785466068,-99.8724080961647,16.8428181115192,-99.9333333333333,16.85
"9",Ad Dakhla,Western Sahara,Africa,23.6679395070517,-15.9526739040635,45808.000000,45805.000000,AD DAKHLA,EH,23.700000,-15.916667,23.000000,42.000000,N,15.000000,55.000000,W,"143","51420",V,RN,G,Y,N,N,Y,,H,H,L,,2.000000,M,Y,,Y,N,Y,Y,Y,Y,Y,N,Y,Y,,Y,,Y,Y,Y,Y,,Y,,,,,Y,,,N,,Y,,,Y,Y,Y,Y,Y,,,,Y,Y,Y,Y,,,C,,,"1",0.0482119938712833,-15.9526739040635,23.6679395070517,-15.9166666666667,23.7
"10",Aden,Yemen,Middle-East,12.7818655302251,44.9549432509693,48190.000000,48143.000000,ADEN,YE,12.783333,44.950000,12.000000,47.000000,N,44.000000,57.000000,E,"172","62098",M,CN,G,Y,N,N,Y,,G,D,F,F,1.000000,M,Y,Y,Y,N,Y,Y,Y,Y,Y,,Y,,Y,,Y,Y,Y,Y,Y,,,Y,Y,,,Y,Y,,Y,Y,Y,Y,,Y,Y,,Y,Y,,Y,Y,Y,Y,Y,Y,,,A,L,S,"1",0.00515656631002518,44.9549432509693,12.7818655302251,44.95,12.7833333333333
"11",Agadir,Morocco,Africa,30.4385783465948,-9.64916171751167,45802.000000,45700.000000,AGADIR,MA,30.433333,-9.633333,30.000000,26.000000,N,9.000000,38.000000,W,"131","51225",L,CB,F,,,,,,L,,G,,3.000000,M,Y,,,,Y,Y,Y,,,,Y,Y,Y,,,,Y,,,,,Y,,,,Y,,,,,Y,Y,,,Y,,Y,,,,,Y,Y,Y,Y,,,C,,,"1",0.0166747686583626,-9.64916171751167,30.4385783465948,-9.63333333333333,30.4333333333333
"12",Ahus,Sweden,Northern-Europe,55.9288002645466,14.3179434166933,24300.000000,23860.000000,AHUS,SE,55.933333,14.316667,55.000000,56.000000,N,14.000000,19.000000,E,"194","44120",S,RB,G,N,N,Y,Y,,L,N,L,L,0.000000,M,,Y,Y,N,Y,Y,Y,,,,Y,,Y,,,,Y,,Y,,,,,,,Y,Y,,Y,Y,Y,Y,,,Y,,Y,,,,,Y,Y,Y,,,,C,,,"1",0.00470943767932622,14.3179434166933,55.9288002645466,14.3166666666667,55.9333333333333
"13",Aiyion,Greece,Mediterranean,38.3355230765585,21.8499653380778,41850.000000,41710.000000,PATRAI,GR,38.250000,21.733333,38.000000,15.000000,N,21.000000,44.000000,E,"132","54288",S,CB,G,N,N,N,Y,,M,A,J,,2.000000,L,N,,Y,N,Y,Y,Y,,Y,Y,Y,Y,Y,,,,Y,Y,,Y,Y,,,,,Y,Y,,Y,Y,Y,,Y,Y,Y,Y,Y,,,,,Y,Y,Y,Y,,,C,,S,"1",0.144627871293037,21.8499653380778,38.3355230765585,21.7333333333333,38.25
"14",Ajman,United Arab Emirates,Middle-East,25.4197868374876,55.4536784936002,48270.000000,48260.000000,AJMAN,AE,25.416667,55.433333,25.000000,25.000000,N,55.000000,26.000000,E,"172","62510",V,OR,F,,,,,,M,K,N,,2.000000,M,,,,,Y,Y,,,,,Y,,,Y,,,,,Y,,Y,,Y,,,Y,Y,,Y,,,,Y,Y,Y,Y,Y,,,,,,Y,Y,Y,,,B,L,,"1",0.0205830272854921,55.4536784936002,25.4197868374876,55.4333333333333,25.4166666666667
"15",Akita-Funakawa Ko,Japan,Asia,39.7566929332217,140.056199223982,61910.000000,61100.000000,AKITA-FUNAKAWA KO,JP,39.833333,140.000000,39.000000,50.000000,N,140.000000,0.000000,E,"159","95262",V,CB,P,Y,Y,N,Y,,H,H,H,D,1.000000,L,Y,Y,Y,N,Y,N,Y,,Y,Y,Y,Y,,Y,Y,Y,Y,Y,Y,Y,Y,,,,,Y,Y,,N,,Y,,,,Y,,Y,Y,,,,Y,Y,Y,,,,C,,S,"1",0.0950373805693509,140.056199223982,39.7566929332217,140,39.8333333333333
"16",Ako,Japan,Asia,34.7474107407492,134.361613773323,61570.000000,61100.000000,AIOI,JP,34.783333,134.466667,34.000000,47.000000,N,134.000000,28.000000,E,"159","97219",V,CN,F,N,N,N,Y,Y,M,M,N,,1.000000,L,Y,,Y,N,Y,,Y,,Y,,Y,Y,,,,,Y,Y,,,,Y,,,,Y,,,Y,,,Y,Y,Y,Y,Y,Y,Y,Y,Y,Y,Y,Y,Y,Y,Y,Y,A,L,L,"1",0.111024965921379,134.361613773323,34.7474107407492,134.466666666667,34.7833333333333
"17",Aktau Port,Kazakhstan,Asia,43.6023674519315,51.2285700704098,44345.000000,44275.000000,SUPSA MARINE TERMINAL,GE,42.100000,41.716667,42.000000,6.000000,N,41.000000,43.000000,E,BA24,"55138",V,OR,P,,,,Y,Y,A,G,,,0.000000,M,,,Y,,,Y,Y,,,Y,Y,,Y,Y,,,Y,,N,,,,Y,,,Y,N,,N,,,,,,,,,Y,,Y,Y,N,N,N,N,,,B,,,"1",9.62981901817281,51.2285700704098,43.6023674519315,41.7166666666667,42.1
"18",Akureyri,Iceland,Northern-Europe,65.6950158237912,-18.0958794908558,310.000000,200.000000,AKUREYRI,IS,65.683333,-18.083333,65.000000,41.000000,N,18.000000,5.000000,W,"181","38681",V,CN,F,N,N,Y,Y,N,A,A,J,,2.000000,,Y,,N,N,Y,N,Y,,,N,Y,Y,Y,,Y,Y,,,Y,,Y,,,,,Y,,,N,Y,N,N,,,,Y,,,,,,Y,Y,Y,Y,,,C,M,S,"1",0.0171431225824546,-18.0958794908558,65.6950158237912,-18.0833333333333,65.6833333333333
"19",Al Ahmadi,Yemen,Middle-East,14.8331154987935,42.9434374094354,48165.000000,48143.000000,AL AHMADI,YE,14.833333,42.966667,14.000000,50.000000,N,42.000000,58.000000,E,"172","62292",S,CB,P,N,N,N,Y,N,K,L,N,N,1.000000,M,N,Y,Y,N,Y,Y,Y,Y,Y,N,N,,,,Y,N,Y,Y,Y,,Y,Y,,,,N,,,,Y,Y,Y,,Y,Y,Y,N,,,,,Y,Y,Y,,N,N,B,,,"1",0.0232302785907241,42.9434374094354,14.8331154987935,42.9666666666667,14.8333333333333
"20",Al Aqabah,Jordan,Middle-East,29.4517118883652,34.9586407379159,48090.000000,48080.000000,AL AQABAH,JO,29.516667,35.000000,29.000000,31.000000,N,35.000000,0.000000,E,"172","62225",V,OR,P,N,N,N,Y,,A,A,G,A,1.000000,M,,,Y,N,Y,Y,Y,Y,Y,N,Y,Y,Y,,Y,Y,Y,Y,Y,Y,Y,Y,,,,Y,Y,,N,Y,Y,,Y,Y,Y,Y,Y,Y,N,N,Y,Y,Y,Y,Y,Y,Y,B,,,"1",0.0770046218374373,34.9586407379159,29.4517118883652,35,29.5166666666667
"21",Al Basrah,Iraq,Middle-East,30.557962880181,47.797786412648,48400.000000,48375.000000,AL BASRAH,IQ,30.516667,47.833333,30.000000,31.000000,N,47.000000,50.000000,E,"172","62439",M,RN,G,N,N,N,Y,N,,,,,1.000000,M,,,Y,Y,Y,,,,,,,Y,Y,Y,,,,,,,,,,,,,,,,,,,,,,,,,,,,,,,,,,,,,"1",0.054488171384523,47.797786412648,30.557962880181,47.8333333333333,30.5166666666667
"22",Al Burayqah,Libya,Africa,30.4070663392377,19.5983626101291,45295.000000,45200.000000,AL BURAYQAH,LY,30.416667,19.600000,30.000000,25.000000,N,19.000000,36.000000,E,"132","56192",S,CB,F,N,N,N,Y,,,A,J,A,1.000000,M,Y,Y,Y,N,Y,Y,Y,,Y,N,Y,Y,,,Y,N,Y,N,Y,,Y,Y,Y,,,Y,,,N,,Y,Y,,Y,Y,,Y,Y,,N,N,N,N,N,N,N,N,N,,,"1",0.00973895950970645,19.5983626101291,30.4070663392377,19.6,30.4166666666667
"23",Al Hamriyah LPG Terminal,United Arab Emirates,Middle-East,25.4675284916522,55.4950117170707,48274.000000,48260.000000,AL HAMRIYAH LPG TERMINAL,AE,25.466667,55.483333,25.000000,28.000000,N,55.000000,29.000000,E,"172","62512",S,CB,G,,,,Y,,G,F,G,G,1.000000,L,,Y,,N,Y,Y,Y,Y,Y,Y,Y,Y,Y,Y,,,Y,Y,,,Y,,,,,Y,N,,N,,,,,,,,,,,,,N,N,N,N,,,N,,,"1",0.0117101404356943,55.4950117170707,25.4675284916522,55.4833333333333,25.4666666666667
"24",Al Iskandariyh (Alexandria),Egypt,Africa,31.155365015765,29.8375905297597,45165.000000,45120.000000,AL ISKANDARIYH (ALEXANDRIA),EG,31.166667,29.833333,31.000000,10.000000,N,29.000000,50.000000,E,"132","56102",L,CB,G,N,Y,N,Y,,G,A,H,K,1.000000,M,Y,Y,Y,Y,Y,Y,Y,Y,,Y,Y,Y,Y,,,,Y,,Y,Y,Y,Y,,,,Y,Y,,Y,,Y,Y,Y,,Y,Y,Y,Y,Y,Y,Y,Y,Y,Y,Y,Y,Y,A,M,M,"1",0.012076880164865,29.8375905297597,31.155365015765,29.8333333333333,31.1666666666667
"25",Al Jubayl,Saudi Arabia,Middle-East,27.0557301427834,49.6603902971205,48338.000000,48330.000000,AL JUBAYL,SA,27.083333,49.666667,27.000000,5.000000,N,49.000000,40.000000,E,"172","62429",V,CB,F,N,N,N,Y,N,G,K,F,A,1.000000,M,Y,Y,N,,Y,Y,Y,Y,Y,Y,Y,Y,Y,Y,Y,,Y,Y,Y,Y,Y,Y,Y,,,Y,Y,,Y,Y,Y,Y,Y,Y,Y,Y,Y,,,,,Y,Y,Y,Y,,,C,M,M,"1",0.0283077541181828,49.6603902971205,27.0557301427834,49.6666666666667,27.0833333333333
"26",Al Kuwayt,Kuwait,Middle-East,29.3521058788468,47.9238967749144,48370.000000,48350.000000,AL KUWAYT,KW,29.350000,47.933333,29.000000,21.000000,N,47.000000,56.000000,E,"172","62433",V,CN,P,Y,N,N,Y,,L,K,K,,4.000000,M,Y,Y,,Y,Y,Y,Y,,Y,,Y,Y,,,,,,Y,,Y,Y,,Y,,,Y,N,,N,Y,Y,Y,,,,Y,Y,,,,,,Y,,,,,C,M,,"1",0.00966867935713068,47.9238967749144,29.3521058788468,47.9333333333333,29.35
"27",Al Ladhiqiyah,Syria,Middle-East,35.5235996489828,35.7704491352825,45010.000000,45000.000000,AL LADHIQIYAH,SY,35.533333,35.766667,35.000000,32.000000,N,35.000000,46.000000,E,"132","56048",M,CB,F,N,N,N,Y,Y,G,G,H,J,0.000000,M,Y,,Y,N,Y,Y,Y,,,N,Y,Y,Y,Y,,,Y,,Y,Y,Y,Y,,,,Y,Y,,N,Y,Y,Y,,Y,Y,Y,Y,,,,,Y,Y,Y,Y,Y,Y,C,L,M,"1",0.0104427812322804,35.7704491352825,35.5235996489828,35.7666666666667,35.5333333333333
"28",Al Mukalla,Yemen,Middle-East,14.5206109137215,49.1512301882824,48210.000000,48195.000000,AL MUKALLA,YE,14.516667,49.116667,14.000000,31.000000,N,49.000000,7.000000,E,"172","62302",S,CB,F,,,,,,J,A,L,A,1.000000,L,N,Y,Y,,Y,Y,Y,Y,Y,N,Y,,Y,,Y,Y,Y,Y,Y,,,Y,Y,,,Y,Y,,Y,Y,Y,Y,,Y,Y,Y,,,,,,Y,Y,Y,Y,,,C,L,,"1",0.0347878443038771,49.1512301882824,14.5206109137215,49.1166666666667,14.5166666666667
"29",Albany,Australia,Australia,-35.0340247742859,117.897153774798,54470.000000,53290.000000,ALBANY,AU,-35.033333,117.883333,35.000000,2.000000,S,117.000000,53.000000,E,"175","75051",S,CN,E,Y,N,N,Y,,J,K,J,K,1.000000,M,,Y,Y,N,Y,Y,Y,,Y,N,Y,Y,Y,Y,Y,Y,Y,,Y,Y,Y,Y,,,,Y,Y,,N,,,,,,,,Y,Y,,,,,Y,,Y,Y,Y,C,,M,"1",0.0138377271567498,117.897153774798,-35.0340247742859,117.883333333333,-35.0333333333333
"30",Alborg,Denmark,Northern-Europe,57.0544130932893,9.99127875660926,30400.000000,30020.000000,ALBORG,DK,57.050000,9.933333,57.000000,3.000000,N,9.000000,56.000000,E,"193","44038",S,RN,G,Y,N,N,Y,Y,K,M,K,,1.000000,L,,,Y,N,Y,Y,Y,,Y,,Y,,Y,,Y,Y,Y,Y,Y,Y,Y,,,,,Y,Y,,Y,Y,,Y,,Y,Y,Y,Y,Y,,Y,Y,Y,Y,Y,Y,Y,Y,A,S,S,"1",0.058113229741656,9.99127875660926,57.0544130932893,9.93333333333333,57.05
"31",Alesund,Norway,Northern-Europe,62.472833897864,6.15402725588215,23120.000000,20620.000000,ALESUND,NO,62.466667,6.166667,62.000000,28.000000,N,6.000000,10.000000,E,"182","43281",S,CB,F,N,N,N,Y,Y,N,C,O,L,2.000000,L,Y,Y,Y,N,Y,Y,Y,,Y,,Y,,Y,,,,Y,Y,Y,,Y,Y,N,N,N,Y,Y,,Y,,Y,Y,,Y,,Y,Y,Y,,,,,Y,Y,,,,C,S,,"1",0.0140637635653184,6.15402725588215,62.472833897864,6.16666666666667,62.4666666666667
"32",Algeciras,Spain,Mediterranean,36.1659219143779,-5.41426652770027,38310.000000,38200.000000,ALGECIRAS,ES,36.133333,-5.433333,36.000000,8.000000,N,5.000000,26.000000,W,"131","52043",S,CB,F,N,N,N,Y,Y,M,A,A,C,1.000000,L,Y,,Y,N,Y,Y,Y,,Y,,Y,Y,,,,,Y,Y,,Y,Y,,Y,,,Y,Y,,N,Y,Y,,,Y,Y,Y,Y,,,Y,,Y,Y,Y,Y,,,B,L,S,"1",0.0377565715015004,-5.41426652770027,36.1659219143779,-5.43333333333333,36.1333333333333
"33",Alger,Algeria,Africa,36.766686240592,3.06628764962369,45570.000000,45470.000000,ALGER,DZ,36.766667,3.066667,36.000000,46.000000,N,3.000000,4.000000,E,"131","52243",L,CB,E,N,Y,N,Y,,D,J,K,,1.000000,L,Y,Y,Y,Y,Y,Y,Y,,Y,,Y,,Y,,Y,,Y,Y,Y,Y,Y,,,,,Y,,,Y,Y,,,,,,Y,Y,Y,Y,Y,Y,Y,Y,Y,Y,Y,Y,A,S,L,"1",0.000379522143521374,3.06628764962369,36.766686240592,3.06666666666667,36.7666666666667
"34",Aliaga,Turkey,Mediterranean,38.803833362685,26.9349982891012,43334.000000,43325.000000,ALIAGA,TR,38.833333,26.933333,38.000000,50.000000,N,26.000000,56.000000,E,"132","54382",V,CB,F,,,,Y,,,L,,M,1.000000,M,Y,,,,Y,Y,Y,,,Y,Y,,Y,,Y,,Y,,,Y,Y,Y,,,,Y,Y,,Y,Y,,,Y,Y,Y,Y,Y,,,,,Y,Y,Y,Y,,,N,,S,"1",0.0295469177066333,26.9349982891012,38.803833362685,26.9333333333333,38.8333333333333
"35",Alicante,Spain,Mediterranean,38.3323079447534,-0.491278006333398,38440.000000,38340.000000,ALICANTE,ES,38.333333,-0.483333,38.000000,20.000000,N,0.000000,29.000000,W,"131","52084",M,CB,F,,,,Y,,G,J,G,,0.000000,M,Y,,Y,,Y,Y,Y,,,,Y,Y,Y,,Y,,Y,,Y,Y,Y,,,,,Y,Y,,N,Y,Y,Y,,,Y,Y,Y,,N,Y,,Y,Y,Y,Y,,,N,,M,"1",0.00801057119173892,-0.491278006333398,38.3323079447534,-0.483333333333333,38.3333333333333
"36",Almeria,Spain,Mediterranean,36.8334606610905,-2.47384678075901,38390.000000,38340.000000,ALMERIA,ES,36.833333,-2.466667,36.000000,50.000000,N,2.000000,28.000000,W,"131","52052",S,CB,F,N,N,N,Y,Y,J,A,J,,1.000000,M,Y,,Y,N,Y,Y,Y,,,,Y,,Y,Y,,,Y,Y,Y,Y,Y,,,,,Y,Y,,N,Y,Y,,,,,Y,Y,,,,,Y,Y,Y,Y,,,C,,S,"1",0.00718124297993168,-2.47384678075901,36.8334606610905,-2.46666666666667,36.8333333333333
"37",Alofi,Niue,Oceania,-19.0526751296352,-169.920014109253,55695.000000,55685.000000,ALOFI,NU,-19.033333,-169.933333,19.000000,2.000000,S,169.000000,56.000000,W,"126",BA4630,V,CN,G,N,N,N,N,N,A,A,P,,2.000000,,Y,,,,,,,,,,,Y,,,,Y,Y,,,,,Y,,,,Y,,,,N,,,,,,,,,,,,Y,Y,,,Y,Y,D,,,"1",0.0234841822146352,-169.920014109253,-19.0526751296352,-169.933333333333,-19.0333333333333
"38",Alotoa,Papua New Guinea,Oceania,-10.3156551278439,150.456024702629,53165.000000,53140.000000,ALOTOA,PG,-10.316667,150.450000,10.000000,19.000000,S,150.000000,27.000000,E,"164","73601",V,CN,F,N,N,N,Y,N,M,A,K,N,1.000000,M,N,N,Y,N,Y,N,Y,Y,Y,N,N,,,Y,Y,,Y,Y,Y,,Y,N,,,,Y,,,N,N,N,N,N,N,N,N,Y,,,,,,Y,Y,N,,,N,,,"1",0.00610903041088733,150.456024702629,-10.3156551278439,150.45,-10.3166666666667
"39",Altamira,Mexico,Latin-America,22.4840960172611,-97.8850021158935,9355.000000,9350.000000,ALTAMIRA,MX,22.483333,-97.850000,22.000000,29.000000,N,97.000000,51.000000,W,"148",28325/3,V,RB,P,N,N,N,N,N,H,E,J,K,1.000000,L,,Y,,N,Y,Y,Y,,,,Y,Y,,Y,,,Y,Y,Y,Y,Y,Y,,,,Y,N,,Y,,Y,,,Y,Y,Y,Y,,,,,,Y,,,,,C,,,"1",0.0350104242162101,-97.8850021158935,22.4840960172611,-97.85,22.4833333333333
"40",Alvika,Norway,Northern-Europe,62.4791720237338,6.37169204462999,23120.000000,20620.000000,ALESUND,NO,62.466667,6.166667,62.000000,28.000000,N,6.000000,10.000000,E,"182","43281",S,CB,F,N,N,N,Y,Y,N,C,O,L,2.000000,L,Y,Y,Y,N,Y,Y,Y,,Y,,Y,,Y,,,,Y,Y,Y,,Y,Y,N,N,N,Y,Y,,Y,,Y,Y,,Y,,Y,Y,Y,,,,,Y,Y,,,,C,S,,"1",0.205406400982003,6.37169204462999,62.4791720237338,6.16666666666667,62.4666666666667
"41",Amagasaki,Japan,Asia,34.7021310849604,135.367795250702,61555.000000,61100.000000,AMAGASAKI,JP,34.700000,135.383333,34.000000,42.000000,N,135.000000,23.000000,E,"159","97245",S,CT,F,N,N,N,Y,Y,K,J,K,K,2.000000,M,Y,,Y,N,Y,Y,Y,,,,Y,Y,,Y,Y,,Y,Y,Y,,Y,Y,Y,,,Y,,,Y,Y,Y,,,,,Y,Y,,,,,Y,Y,Y,Y,,,C,,,"1",0.0156835434443597,135.367795250702,34.7021310849604,135.383333333333,34.7
"42",Amamapare,Indonesia,Asia,-4.80682883215348,136.803090250694,53115.000000,52900.000000,AMAMAPARE,ID,-4.816667,136.966667,4.000000,49.000000,S,136.000000,58.000000,E,"164",BA3527,S,CN,F,,Y,,Y,,M,A,M,,7.000000,L,Y,,,,Y,N,N,,,,Y,Y,Y,Y,,,Y,N,Y,,Y,Y,,,,Y,,,,,,Y,Y,Y,,,,,,,,Y,,,,,,,,,"1",0.163871983115667,136.803090250694,-4.80682883215348,136.966666666667,-4.81666666666667
"43",Ambon,Indonesia,Asia,-3.67753519465811,128.175521606224,52720.000000,52650.000000,AMBON,ID,-3.683333,128.166667,3.000000,41.000000,S,128.000000,10.000000,E,"164","73441",S,CN,F,N,N,N,Y,Y,J,J,J,L,5.000000,M,Y,Y,Y,N,Y,Y,Y,Y,,Y,Y,Y,Y,Y,Y,Y,Y,Y,Y,N,Y,Y,,,,Y,,,N,Y,Y,Y,,,Y,Y,Y,,,,,Y,Y,Y,,Y,Y,C,,,"1",0.0105843453581948,128.175521606224,-3.67753519465811,128.166666666667,-3.68333333333333
"44",Ampenan,Indonesia,Asia,-8.66469879720956,116.073204854384,51280.000000,51250.000000,AMPENAN,ID,-8.566667,116.066667,8.000000,34.000000,S,116.000000,4.000000,E,"163","72203",V,OR,P,Y,Y,N,N,,L,D,,,3.000000,M,,,Y,N,Y,,Y,,,,Y,Y,,Y,,,Y,Y,Y,,Y,Y,,,,Y,,,Y,Y,,,,,,Y,Y,,,,,,Y,Y,N,N,,,,,"1",0.0982499186636257,116.073204854384,-8.66469879720956,116.066666666667,-8.56666666666667
"45",Amsterdam,Netherlands,Western-Europe,52.4103616532444,4.81963411205458,31050.000000,30980.000000,ZAANDAM,NL,52.433333,4.833333,52.000000,26.000000,N,4.000000,50.000000,E,"192","37163",S,LC,E,N,N,N,Y,Y,L,G,L,,4.000000,M,,,Y,Y,Y,N,Y,,Y,,Y,,Y,Y,Y,Y,Y,Y,Y,Y,Y,,,,,Y,,,N,,Y,,,,,Y,Y,,,,,Y,Y,Y,Y,,,C,,,"1",0.0267463408665897,4.81963411205458,52.4103616532444,4.83333333333333,52.4333333333333
"46",Amuay (Bahia De Amuay),Venezuela,Latin-America,11.7445859366334,-70.2053553102471,12070.000000,11950.000000,AMUAY (BAHIA DE AMUAY),VE,11.750000,-70.233333,11.000000,45.000000,N,70.000000,14.000000,W,"148","24471",S,OR,F,N,N,N,Y,N,J,M,,H,0.000000,L,Y,Y,Y,N,Y,Y,Y,,,,Y,Y,,Y,,,Y,Y,Y,,Y,,,,,Y,,,Y,,Y,Y,,Y,Y,,,,,Y,Y,Y,Y,Y,Y,,,D,,,"1",0.0284970499867815,-70.2053553102471,11.7445859366334,-70.2333333333333,11.75
"47",Anacortes,Canada,North-America,48.4867770036674,-122.568845705805,18040.000000,16000.000000,ANACORTES,US,48.516667,-122.616667,48.000000,31.000000,N,122.000000,37.000000,W,CP07,"18427",S,CN,E,N,N,N,,,H,F,J,H,5.000000,L,,,Y,,Y,Y,,,Y,,Y,Y,,,Y,Y,Y,Y,Y,Y,Y,Y,,,,Y,Y,,Y,,Y,,Y,,Y,,Y,Y,N,Y,Y,Y,Y,Y,Y,Y,Y,C,,M,"1",0.0563935834291416,-122.568845705805,48.4867770036674,-122.616666666667,48.5166666666667
"48",Anchorage,U.S.A.,North-America,61.2327929204707,-149.874328564498,19800.000000,19080.000000,ANCHORAGE,US,61.216667,-149.900000,61.000000,13.000000,N,149.000000,54.000000,W,CP09,"16665",S,CN,F,Y,N,N,Y,,M,E,K,K,15.000000,L,Y,Y,Y,,Y,,Y,,Y,,Y,Y,,,Y,Y,Y,Y,Y,Y,Y,Y,,,,Y,Y,,N,Y,Y,,,Y,Y,Y,Y,Y,Y,Y,Y,Y,Y,Y,Y,Y,Y,C,,,"1",0.0303163101724201,-149.874328564498,61.2327929204707,-149.9,61.2166666666667
"49",Ancona,Italy,Mediterranean,43.621663928826,13.5020979112551,40660.000000,40390.000000,ANCONA,IT,43.616667,13.500000,43.000000,37.000000,N,13.000000,30.000000,E,"131","54041",S,CB,G,Y,Y,N,Y,,J,J,L,J,1.000000,L,Y,N,Y,,Y,Y,Y,Y,Y,,Y,Y,,,Y,,Y,Y,Y,Y,Y,,Y,,,Y,Y,,Y,Y,Y,Y,,Y,Y,Y,Y,,,,,,Y,Y,Y,,,B,S,M,"1",0.00541976574432997,13.5020979112551,43.621663928826,13.5,43.6166666666667
"50",Andoany,Madagascar,Africa,-13.4026181204241,48.2147020192741,47360.000000,47350.000000,ANDOANY,MG,-13.400000,48.300000,13.000000,24.000000,S,48.000000,18.000000,E,"171","61420",V,OR,F,,Y,,,,C,F,L,N,4.000000,,,Y,,,Y,,N,,Y,,Y,,,,,,Y,,Y,,,Y,,,,Y,,,,Y,Y,,,,Y,Y,Y,Y,,,,,Y,N,N,N,N,D,,,"1",0.08533815131856,48.2147020192741,-13.4026181204241,48.3,-13.4
"51",Andres (Andres LGN Terminal),Dominican Republic,Caribbean,18.4188529618917,-69.6332997762114,11035.000000,10950.000000,ANDRES (ANDRES LGN TERMINAL),DO,18.433333,-69.633333,18.000000,26.000000,N,69.000000,38.000000,W,"147",25849/8,M,OR,G,N,Y,N,Y,Y,K,H,M,H,1.000000,M,,Y,N,N,Y,Y,Y,Y,Y,N,N,Y,,Y,N,,Y,,Y,Y,Y,,,,,Y,,,N,,,,,,,,Y,,,,,,Y,Y,Y,,,C,,S,"1",0.0144804103246108,-69.6332997762114,18.4188529618917,-69.6333333333333,18.4333333333333
"52",Anguilla,Anguilla,Caribbean,18.1975088138836,-63.0907271932426,11360.000000,11355.000000,BAIE DU MARIGOT,FR,18.066667,-63.083333,18.000000,4.000000,N,63.000000,5.000000,W,"147","25608",V,OR,G,N,N,N,Y,N,M,M,N,,2.000000,M,Y,,Y,Y,Y,,,,,,,,,,,,Y,,Y,,,Y,,,,Y,,,N,,,,,,,,,,,,,,,,,,,,,,"1",0.131050893368543,-63.0907271932426,18.1975088138836,-63.0833333333333,18.0666666666667
"53",Annaba,Algeria,Africa,36.8962262931259,7.76762178968329,45490.000000,45470.000000,ANNABA,DZ,36.916667,7.766667,36.000000,55.000000,N,7.000000,46.000000,E,"131","52202",M,CB,F,,Y,N,N,N,H,C,H,,0.000000,L,Y,,Y,N,Y,Y,Y,,Y,Y,Y,Y,Y,,,,Y,Y,Y,Y,Y,Y,Y,,,Y,Y,,N,Y,Y,Y,Y,Y,Y,Y,Y,Y,,,,,Y,Y,Y,Y,Y,C,,M,"1",0.020462676522504,7.76762178968329,36.8962262931259,7.76666666666667,36.9166666666667
"54",Antalya,Turkey,Mediterranean,36.8388993715397,30.6062006574978,44820.000000,44360.000000,ANTALYA,TR,36.833333,30.616667,36.000000,50.000000,N,30.000000,37.000000,E,"132","54423",S,CB,P,N,N,N,Y,,M,C,N,E,1.000000,L,Y,Y,Y,N,Y,Y,Y,,,,Y,Y,Y,Y,,,Y,,Y,,Y,Y,Y,,,Y,Y,,Y,Y,Y,,,,Y,Y,Y,,,,,Y,Y,Y,Y,,,C,,,"1",0.0118540343021491,30.6062006574978,36.8388993715397,30.6166666666667,36.8333333333333
"55",Antisranana,Madagascar,Africa,-12.2690559089827,49.2886901864342,47630.000000,47350.000000,ANTISRANANA,MG,-12.266667,49.283333,12.000000,16.000000,S,49.000000,17.000000,E,"171","61562",S,CB,G,Y,N,N,Y,,G,L,L,L,2.000000,L,Y,,Y,N,Y,Y,Y,N,Y,,Y,Y,,,,,Y,Y,Y,,Y,Y,N,N,N,Y,N,N,N,Y,Y,,,,,Y,Y,Y,,Y,Y,Y,Y,N,N,Y,Y,B,M,,"1",0.00586552248222222,49.2886901864342,-12.2690559089827,49.2833333333333,-12.2666666666667
"56",Antofagasta,Chile,Latin-America,-23.6509440933457,-70.4048979191415,14660.000000,14070.000000,ANTOFAGASTA,CL,-23.650000,-70.416667,23.000000,39.000000,S,70.000000,25.000000,W,"125","22221",M,CB,G,N,Y,N,Y,,K,D,J,E,3.000000,L,N,Y,Y,Y,Y,Y,Y,,Y,N,Y,Y,,Y,Y,Y,Y,Y,Y,Y,Y,Y,,,,Y,N,,N,Y,Y,Y,,Y,,Y,Y,Y,N,N,N,Y,Y,,Y,Y,Y,C,,M,"1",0.0118065545590797,-70.4048979191415,-23.6509440933457,-70.4166666666667,-23.65
"57",Antwerp,Belgium,Western-Europe,51.2793549442804,4.31780231066696,31250.000000,31240.000000,ANTWERPEN,BE,51.216667,4.400000,51.000000,13.000000,N,4.000000,24.000000,E,"192","37246",L,RT,G,N,N,Y,Y,Y,J,C,J,M,4.000000,M,,Y,Y,Y,Y,Y,Y,Y,,N,Y,Y,Y,,Y,Y,Y,Y,Y,Y,Y,,,,,Y,Y,,Y,Y,Y,Y,Y,Y,Y,Y,Y,Y,Y,Y,Y,Y,Y,Y,Y,Y,Y,A,L,,"1",0.103374466295418,4.31780231066696,51.2793549442804,4.4,51.2166666666667
"58",Aomori Ko,Japan,Asia,40.8422595828179,140.760306795555,61270.000000,61100.000000,AOMORI KO,JP,40.833333,140.750000,40.000000,50.000000,N,140.000000,45.000000,E,"159","96944",S,CB,G,N,N,N,Y,,E,E,H,L,1.000000,L,,Y,Y,N,Y,N,Y,,Y,,Y,Y,,Y,Y,Y,Y,Y,Y,Y,Y,,,,,Y,,,N,Y,Y,N,,Y,Y,,Y,Y,,,,Y,Y,Y,,Y,Y,C,M,,"1",0.0136348070934212,140.760306795555,40.8422595828179,140.75,40.8333333333333
"59",Apia,Samoa,Oceania,-13.8260694302927,-171.760231763266,55670.000000,55665.000000,APIA,WS,-13.816667,-171.766667,13.000000,49.000000,S,171.000000,46.000000,W,"126",83476/3,V,CN,G,Y,Y,N,N,,J,A,L,J,1.000000,L,,Y,,,Y,Y,Y,,Y,,Y,Y,,Y,Y,Y,Y,Y,Y,N,Y,,,,,Y,Y,,N,,Y,,,,,Y,Y,,,,,,Y,Y,,Y,Y,C,,S,"1",0.011393855606463,-171.760231763266,-13.8260694302927,-171.766666666667,-13.8166666666667
"60",Apra Harbor,Guam,Oceania,13.4602816962813,144.675364318345,56550.000000,56545.000000,APRA HARBOR,GU,13.450000,144.616667,13.000000,27.000000,N,144.000000,37.000000,E,"126","81054",M,CB,G,Y,Y,N,Y,N,J,A,L,G,1.000000,M,N,Y,Y,Y,Y,Y,Y,,Y,,Y,Y,,,Y,Y,Y,,Y,,Y,,,,,Y,Y,,Y,Y,Y,Y,Y,,Y,,,Y,Y,N,N,,Y,Y,Y,N,Y,C,M,,"1",0.0595913382208212,144.675364318345,13.4602816962813,144.616666666667,13.45
"61",Aratu,Brazil,Latin-America,-12.7834504618961,-38.4879905805165,12772.000000,12700.000000,ARATU,BR,-12.783333,-38.500000,12.000000,47.000000,S,38.000000,30.000000,W,"124","24202",S,OR,F,N,N,N,Y,,E,,J,J,3.000000,L,,Y,N,N,Y,Y,Y,,,N,Y,Y,N,,Y,,Y,N,Y,Y,Y,Y,Y,N,,Y,,,,,,,N,N,Y,N,,,,,,N,Y,Y,,,,C,L,S,"1",0.012009990650746,-38.4879905805165,-12.7834504618961,-38.5,-12.7833333333333
"62",Arawak,Barbados,Caribbean,13.286761529608,-59.6482315666147,11690.000000,11675.000000,BRIDGETOWN,BB,13.100000,-59.633333,13.000000,6.000000,N,59.000000,38.000000,W,"147","25487",S,CB,G,N,Y,N,,Y,H,L,J,H,1.000000,L,Y,Y,Y,Y,Y,Y,Y,,Y,N,Y,Y,,Y,,Y,Y,Y,Y,,Y,,,,,Y,Y,,Y,Y,Y,,,Y,Y,Y,Y,,,,,Y,Y,Y,Y,,,C,,,"1",0.187354813913177,-59.6482315666147,13.286761529608,-59.6333333333333,13.1
"63",Ardalstangen,Norway,Northern-Europe,61.2355914959458,7.70970594601261,23136.000000,20620.000000,ARDALSTANGEN,NO,61.233333,7.716667,61.000000,14.000000,N,7.000000,43.000000,E,"182",UK2673,V,RN,F,N,N,N,Y,N,A,A,L,,0.000000,L,N,,N,N,Y,Y,Y,,,,Y,,Y,,Y,,Y,Y,,,Y,Y,,Y,,Y,Y,,Y,Y,,,,,Y,,Y,,,,,,Y,,,,,,,,"1",0.00731785012202311,7.70970594601261,61.2355914959458,7.71666666666667,61.2333333333333
"64",Ardel,Norway,Northern-Europe,59.1464513904096,6.17070503494007,23480.000000,20620.000000,STAVANGER,NO,58.966667,5.750000,58.000000,58.000000,N,5.000000,45.000000,E,"182","43342",M,CB,E,Y,N,N,N,Y,A,A,L,K,1.000000,L,Y,,Y,N,Y,Y,Y,,Y,N,Y,,Y,Y,Y,,Y,Y,Y,Y,Y,Y,,Y,,Y,Y,,Y,Y,Y,Y,Y,Y,Y,Y,Y,,,,Y,Y,Y,Y,Y,Y,Y,B,L,,"1",0.457509861440449,6.17070503494007,59.1464513904096,5.75,58.9666666666667
"65",Argentia,Canada,North-America,47.3389064224239,-53.9335460406483,1710.000000,1680.000000,ARGENTIA,CA,47.300000,-53.983333,47.000000,18.000000,N,53.000000,59.000000,W,"146","14351",M,CN,F,N,N,Y,Y,N,J,B,J,H,2.000000,M,N,N,Y,N,Y,N,Y,N,Y,N,N,Y,N,,Y,Y,Y,Y,Y,,Y,,,,,Y,,,N,Y,,,,,Y,,Y,,,,,Y,Y,Y,Y,,,C,M,,"1",0.0631861077985762,-53.9335460406483,47.3389064224239,-53.9833333333333,47.3
"66",Arhus,Denmark,Northern-Europe,56.1511346299888,10.2292506989622,30260.000000,30020.000000,ARHUS,DK,56.150000,10.216667,56.000000,9.000000,N,10.000000,13.000000,E,"193","44046",M,CB,G,N,N,N,Y,Y,J,J,L,L,0.000000,L,Y,Y,Y,N,Y,Y,Y,,Y,,Y,,Y,Y,Y,Y,Y,,Y,Y,Y,,,,,Y,Y,,Y,Y,Y,Y,,Y,Y,Y,Y,Y,,Y,Y,Y,Y,Y,Y,Y,Y,C,M,L,"1",0.0126350802936558,10.2292506989622,56.1511346299888,10.2166666666667,56.15
"67",Arkhangels'k,Russia,Northern-Europe,64.5252169362639,40.676333171542,62800.000000,62530.000000,ARKHANGELS'K,RU,64.533333,40.533333,64.000000,32.000000,N,40.000000,32.000000,E,"183",BA2280,M,RN,G,Y,N,Y,Y,Y,L,K,L,L,1.000000,L,Y,,Y,N,Y,Y,Y,,Y,,Y,Y,Y,Y,Y,Y,Y,Y,Y,Y,Y,,,,,Y,Y,Y,Y,Y,Y,Y,,Y,,Y,Y,Y,Y,Y,Y,Y,Y,Y,Y,Y,Y,A,L,L,"1",0.143229988581645,40.676333171542,64.5252169362639,40.5333333333333,64.5333333333333
"68",Arrecife,Spain,Western-Europe,28.9693625008483,-13.5280718203971,38190.000000,38140.000000,ARRECIFE,ES,28.950000,-13.533333,28.000000,57.000000,N,13.000000,32.000000,W,"143","51380",V,CB,F,,,,Y,,N,A,G,,2.000000,M,,,,,Y,Y,Y,,,,,,Y,,Y,,Y,,,,,,,,,Y,,,N,,Y,,,,,Y,,,,,,Y,Y,Y,,,,C,M,S,"1",0.0200646444643404,-13.5280718203971,28.9693625008483,-13.5333333333333,28.95
"69",Arzew El Djedid,Algeria,Africa,35.8192350199618,-0.267622304953349,45635.000000,45470.000000,ARZEW EL DJEDID,DZ,35.816667,-0.250000,35.000000,49.000000,N,0.000000,15.000000,W,"131","52262",S,CB,P,,,,Y,,L,A,,H,0.000000,M,N,,,,Y,Y,Y,,,,Y,,,,N,,Y,,Y,Y,Y,,,,,Y,Y,,N,,,,,,,,,,,,,Y,Y,Y,Y,,,N,,S,"1",0.0178084831054542,-0.267622304953349,35.8192350199618,-0.25,35.8166666666667
"70",As Suways,Egypt,Africa,29.951008333267,32.5306392138405,48040.000000,47950.000000,AS SUWAYS,EG,29.966667,32.550000,29.000000,58.000000,N,32.000000,33.000000,E,"172","62193",L,CB,G,N,Y,N,Y,,D,M,N,L,2.000000,M,,,Y,Y,Y,Y,Y,,Y,N,Y,Y,Y,,Y,Y,Y,Y,,Y,Y,Y,,,,Y,Y,,N,,,Y,Y,Y,Y,,Y,Y,,,,Y,Y,Y,Y,Y,Y,B,M,L,"1",0.0249002699898164,32.5306392138405,29.951008333267,32.55,29.9666666666667
"71",Ash Shariqah,United Arab Emirates,Middle-East,25.3631273481663,55.3762332859375,48271.000000,48260.000000,ASH SHARIQAH,AE,25.416667,55.366667,25.000000,25.000000,N,55.000000,22.000000,E,"172","62512",S,CB,F,,,,Y,,G,N,N,,1.000000,L,,,N,N,Y,Y,Y,,,,Y,Y,,Y,,,Y,Y,Y,,Y,N,,,,Y,N,,Y,,Y,,,,Y,Y,Y,,,,,Y,Y,Y,Y,Y,Y,B,M,,"1",0.054387303939044,55.3762332859375,25.3631273481663,55.3666666666667,25.4166666666667
"72",Ashdod,Israel,Middle-East,31.8363090903058,34.6684999782474,45100.000000,45060.000000,ASHDOD,IL,31.816667,34.650000,31.000000,49.000000,N,34.000000,39.000000,E,"132","56067",S,CB,F,N,N,N,Y,,,A,F,F,0.000000,M,N,N,Y,N,Y,Y,Y,,Y,,Y,Y,Y,,,,Y,,Y,Y,Y,Y,Y,,,Y,Y,,Y,Y,Y,,,Y,Y,Y,Y,,,Y,Y,Y,Y,Y,,,,B,,M,"1",0.0269828464320291,34.6684999782474,31.8363090903058,34.65,31.8166666666667
"73",Ashqelon,Israel,Middle-East,31.6407739205751,34.5391344127171,45110.000000,45060.000000,ASHQELON,IL,31.666667,34.500000,31.000000,40.000000,N,34.000000,30.000000,E,"132","56067",V,OR,F,N,N,N,Y,N,,E,,A,0.000000,L,,Y,,,Y,Y,Y,,Y,,Y,Y,,,Y,,Y,Y,,Y,Y,,,,,Y,Y,,Y,,,,,,,,,,,,,Y,N,N,N,,,C,,M,"1",0.0469247968442181,34.5391344127171,31.6407739205751,34.5,31.6666666666667
"74",Aspropirgos,Greece,Mediterranean,38.0242133670878,23.5985111144725,42378.000000,42010.000000,ASPROPIRGOS,GR,38.033333,23.600000,38.000000,2.000000,N,23.000000,36.000000,E,"132","54339",V,OR,P,,,,Y,,L,A,,J,0.000000,M,,,,,Y,Y,Y,,,,Y,Y,Y,Y,,,Y,Y,Y,Y,Y,Y,,,,Y,,,,,,,,,,,Y,,,,,,Y,Y,Y,,,C,,S,"1",0.00924070151195479,23.5985111144725,38.0242133670878,23.6,38.0333333333333
"75",Atapupu,Indonesia,Asia,-8.99567171558744,124.86262151918,51440.000000,51430.000000,DILI,TL,-8.533333,125.583333,8.000000,32.000000,S,125.000000,35.000000,E,"163","73004",S,CN,G,,,,,,A,A,M,,5.000000,M,,,Y,,Y,N,N,,Y,N,N,Y,Y,,Y,Y,Y,Y,,,,Y,,,,Y,Y,,,,Y,,,,,Y,Y,,,,,Y,Y,Y,,,,,,,"1",0.856260648848203,124.86262151918,-8.99567171558744,125.583333333333,-8.53333333333333
"76",Atuona,French Polynesia,Oceania,-9.80538288150464,-139.030826140797,56010.000000,56000.000000,ATUONA,PF,-9.816667,-139.033333,9.000000,49.000000,S,139.000000,2.000000,W,"126","83218",V,CN,G,N,N,N,Y,N,H,K,,,3.000000,,Y,,Y,N,N,,,,,N,N,,,,,,Y,,,,,Y,,,,Y,,,N,,,,,,,,,,,,,Y,Y,N,N,,,,,,"1",0.0115589714939452,-139.030826140797,-9.80538288150464,-139.033333333333,-9.81666666666667
"77",Auckland,New Zealand,Oceania,-36.8428003803658,174.773952033559,55060.000000,54990.000000,AUCKLAND,NZ,-36.850000,174.766667,36.000000,51.000000,S,174.000000,46.000000,E,"127","76052",L,RN,E,N,N,N,N,N,K,J,K,K,2.000000,L,Y,Y,Y,Y,Y,Y,Y,,Y,,Y,Y,Y,Y,Y,,Y,Y,Y,Y,Y,,,,,Y,Y,,N,Y,Y,Y,,Y,Y,Y,Y,Y,Y,Y,Y,Y,Y,Y,Y,Y,Y,A,L,M,"1",0.010242611660438,174.773952033559,-36.8428003803658,174.766666666667,-36.85
"78",Augusta,Italy,Mediterranean,37.1939226401857,15.183932202418,40250.000000,40090.000000,AUGUSTA,IT,37.216667,15.233333,37.000000,13.000000,N,15.000000,14.000000,E,"131","53201",S,CB,F,N,N,N,Y,,A,B,,F,0.000000,M,Y,Y,Y,N,Y,Y,Y,,Y,,Y,Y,Y,Y,,,Y,Y,Y,Y,Y,Y,Y,N,N,Y,Y,,Y,,,Y,,,,Y,,Y,,Y,Y,Y,Y,Y,Y,Y,Y,C,M,S,"1",0.0543853148954682,15.183932202418,37.1939226401857,15.2333333333333,37.2166666666667
"79",Avatiu,Cook Islands,Oceania,-21.2038645772927,-159.784274292021,55740.000000,55700.000000,AVATIU,CK,-21.200000,-159.783333,21.000000,12.000000,S,159.000000,47.000000,W,"126","83425",V,CN,G,N,Y,N,Y,N,N,A,N,N,1.000000,M,Y,Y,Y,N,Y,N,Y,N,Y,N,Y,Y,,Y,Y,Y,Y,Y,Y,,Y,Y,,,,Y,Y,,N,,Y,,,,,Y,Y,Y,N,N,N,,Y,Y,,N,N,C,,,"1",0.00397748172883076,-159.784274292021,-21.2038645772927,-159.783333333333,-21.2
"80",Aveiro,Portugal,Western-Europe,40.6298143087566,-8.71999404573483,37970.000000,37930.000000,AVEIRO,PT,40.650000,-8.650000,40.000000,39.000000,N,8.000000,39.000000,W,"143","51135",M,RN,G,Y,N,N,Y,,M,J,K,,3.000000,M,Y,,Y,N,Y,Y,Y,,,,Y,Y,Y,Y,Y,Y,Y,,Y,Y,Y,,,,,Y,Y,,Y,,Y,,,Y,,Y,Y,,,,Y,,Y,Y,Y,Y,Y,B,S,S,"1",0.0728466098683055,-8.71999404573483,40.6298143087566,-8.65,40.65
"81",Aviles,Spain,Western-Europe,43.5642594017269,-5.89439053489537,37600.000000,37270.000000,AVILES,ES,43.600000,-5.933333,43.000000,36.000000,N,5.000000,56.000000,W,"143","37481",S,LC,E,Y,Y,N,Y,Y,K,H,J,,3.000000,M,,,Y,N,Y,Y,Y,,Y,,Y,,Y,,,,Y,Y,Y,Y,Y,,,,,Y,Y,,Y,Y,Y,,,,Y,Y,Y,,,,,,Y,Y,Y,,,C,S,M,"1",0.052857657109472,-5.89439053489537,43.5642594017269,-5.93333333333333,43.6
"82",Avonmouth,United Kingdom,Western-Europe,51.4981208165502,-2.70876736814271,35060.000000,35030.000000,AVONMOUTH,GB,51.500000,-2.716667,51.000000,30.000000,N,2.000000,43.000000,W,"142","36043",S,RT,E,Y,N,N,Y,Y,M,K,L,K,9.000000,M,Y,Y,Y,,Y,Y,Y,Y,Y,,Y,,Y,Y,,,Y,,,Y,Y,,,,,Y,Y,,Y,,Y,,,,,Y,Y,Y,,Y,Y,Y,Y,Y,Y,Y,Y,A,L,S,"1",0.00811974430685048,-2.70876736814271,51.4981208165502,-2.71666666666667,51.5
"83",Az Zawiya,Libya,Africa,32.7855035596152,12.7000084519121,45335.000000,45200.000000,AZ ZAWIYA,LY,32.800000,12.716667,32.000000,48.000000,N,12.000000,43.000000,E,"132","52160",S,OR,P,,,,Y,,,A,,D,0.000000,L,Y,,,,Y,Y,Y,,,,Y,Y,,,Y,N,Y,N,Y,,,Y,,,,Y,N,,,N,N,N,,,,,,,,,,N,N,N,N,,,N,,,"1",0.0220826380361901,12.7000084519121,32.7855035596152,12.7166666666667,32.8
"84",Bahai De La Habana,Cuba,Caribbean,23.1276695494144,-82.3337167483062,10100.000000,10030.000000,BAHAI DE LA HABANA,CU,23.133333,-82.366667,23.000000,8.000000,N,82.000000,22.000000,W,"147","27085",L,CB,E,N,N,N,Y,N,H,K,K,J,1.000000,L,,Y,Y,N,Y,Y,Y,,Y,,Y,Y,,,,,Y,,Y,Y,Y,Y,,,,Y,,,,,Y,Y,,,,Y,Y,Y,Y,Y,Y,Y,Y,Y,Y,Y,Y,A,M,M,"1",0.0334331507375931,-82.3337167483062,23.1276695494144,-82.3666666666667,23.1333333333333
"85",Bahia De Las Minas,Panama,Latin-America,9.38972310708709,-79.820355936773,9875.000000,9820.000000,BAHIA DE LAS MINAS,PA,9.400000,-79.816667,9.000000,24.000000,N,79.000000,49.000000,W,"148","26066",S,RN,F,N,N,N,Y,N,H,D,M,J,0.000000,L,,Y,Y,N,Y,Y,Y,,,,Y,,,Y,Y,Y,Y,,Y,,Y,,,,,Y,,,Y,,,,,,,,Y,,,,,,Y,Y,,,,C,,S,"1",0.0109190311777602,-79.820355936773,9.38972310708709,-79.8166666666667,9.4
"86",Bahia De Matarani,Peru,Latin-America,-17.0046334131758,-72.1077877911258,14860.000000,14830.000000,BAHIA DE MATARANI,PE,-17.000000,-72.116667,17.000000,0.000000,S,72.000000,7.000000,W,"125","22182",S,CB,G,N,N,N,,Y,H,A,H,D,3.000000,L,,,,N,Y,Y,Y,,Y,,Y,Y,Y,Y,Y,Y,Y,,Y,Y,Y,Y,,,,Y,Y,,N,Y,,,,,,Y,Y,Y,N,N,N,Y,N,N,Y,N,N,C,,S,"1",0.0100151359714813,-72.1077877911258,-17.0046334131758,-72.1166666666667,-17
"87",Bahia De Valparaiso,Chile,Latin-America,-33.0332438097739,-71.6277389533449,14500.000000,14070.000000,BAHIA DE VALPARAISO,CL,-33.033333,-71.616667,33.000000,2.000000,S,71.000000,37.000000,W,"125","22293",M,CB,F,N,N,N,N,N,A,A,J,G,1.000000,L,Y,,Y,Y,Y,Y,Y,,Y,,Y,Y,Y,,Y,Y,Y,Y,Y,Y,Y,,,,,Y,N,,N,Y,Y,Y,Y,Y,Y,Y,Y,Y,Y,Y,Y,Y,Y,Y,Y,Y,Y,A,S,,"1",0.0110726485879651,-71.6277389533449,-33.0332438097739,-71.6166666666667,-33.0333333333333
"88",Bahia Quintero (Ventanas),Chile,Latin-America,-32.76696313261,-71.4839510396292,14510.000000,14070.000000,BAHIA QUINTERO (VENTANAS),CL,-32.766667,-71.533333,32.000000,46.000000,S,71.000000,32.000000,W,"125","22293",V,OR,F,N,N,N,Y,Y,,D,G,A,1.000000,L,N,Y,,N,Y,Y,Y,,,N,Y,Y,,Y,,Y,Y,,Y,Y,Y,Y,,,,Y,N,,N,,Y,,,,,Y,Y,,,,,Y,Y,Y,N,,,C,,,"1",0.0493831836108251,-71.4839510396292,-32.76696313261,-71.5333333333333,-32.7666666666667
"89",Bahia San Nicolas,Peru,Latin-America,-15.2581787685419,-75.2394926674042,14895.000000,14830.000000,BAHIA SAN NICOLAS,PE,-15.250000,-75.233333,15.000000,15.000000,S,75.000000,14.000000,W,"125","22183",V,CB,G,N,Y,N,Y,Y,H,A,D,D,0.000000,L,Y,Y,Y,N,Y,Y,Y,,,,Y,Y,Y,Y,Y,,Y,,,,Y,Y,,,,Y,,,N,N,N,N,,,,Y,,,,,,Y,N,N,N,,,D,,,"1",0.0102386352146709,-75.2394926674042,-15.2581787685419,-75.2333333333333,-15.25
"90",Bahia San Vicente,Chile,Latin-America,-36.7428769892689,-73.1219987012827,14415.000000,14070.000000,BAHIA SAN VICENTE,CL,-36.733333,-73.166667,36.000000,44.000000,S,73.000000,10.000000,W,"125","22314",V,CN,F,N,N,N,,,A,D,J,H,1.000000,L,Y,,,N,Y,Y,Y,,,,Y,Y,,Y,Y,Y,Y,Y,Y,Y,Y,Y,,,,Y,,,Y,Y,Y,Y,Y,,Y,,,Y,,,,Y,Y,Y,Y,Y,Y,B,L,M,"1",0.0456761261510145,-73.1219987012827,-36.7428769892689,-73.1666666666667,-36.7333333333333
"91",Baie Comeau,Canada,North-America,49.24803551848,-68.1413618900073,2015.000000,1930.000000,BAIE COMEAU,CA,49.233333,-68.133333,49.000000,14.000000,N,68.000000,8.000000,W,"145","14264",S,RN,G,N,N,N,N,N,L,A,J,,4.000000,L,,Y,Y,N,Y,N,Y,,Y,,Y,,N,,Y,Y,,,Y,,Y,,Y,,,Y,,,N,Y,Y,,,Y,,Y,Y,Y,,,,Y,Y,Y,Y,Y,Y,C,,,"1",0.0167514766619051,-68.1413618900073,49.24803551848,-68.1333333333333,49.2333333333333
"92",Baie De Kouaoua,New Caledonia,Oceania,-21.4003154035284,165.833000909864,57275.000000,57260.000000,BAIE DE KOUAOUA,NC,-21.383333,165.816667,21.000000,23.000000,S,165.000000,49.000000,E,"126","82684",V,OR,F,,,,,Y,N,C,L,,0.000000,M,Y,,,,Y,Y,Y,,,,,Y,,Y,Y,,Y,Y,Y,,Y,Y,,,,,,,Y,,,,,,,,,,,,,,,,,,,,,,"1",0.0235626443536943,165.833000909864,-21.4003154035284,165.816666666667,-21.3833333333333
"93",Baie Du Marigot,Saint Martin,Caribbean,18.0822130188766,-63.0830929174822,11360.000000,11355.000000,BAIE DU MARIGOT,FR,18.066667,-63.083333,18.000000,4.000000,N,63.000000,5.000000,W,"147","25608",V,OR,G,N,N,N,Y,N,M,M,N,,2.000000,M,Y,,Y,Y,Y,,,,,,,,,,,,Y,,Y,,,Y,,,,Y,,,N,,,,,,,,,,,,,,,,,,,,,,"1",0.0155482110487363,-63.0830929174822,18.0822130188766,-63.0833333333333,18.0666666666667
"94",Baie Taoihae,French Polynesia,Oceania,-8.92147490341301,-140.094613113722,56015.000000,56000.000000,BAIE TAIOHAE,PF,-8.933333,-140.083333,8.000000,56.000000,S,140.000000,5.000000,W,"126","83207",V,CN,G,Y,Y,N,Y,N,K,H,,,3.000000,,,,Y,N,N,,,,,N,N,,,,,,Y,,,,,Y,,,,Y,,,N,,,,,,,,,,,,,Y,Y,N,Y,,,,,,"1",0.0163663009197241,-140.094613113722,-8.92147490341301,-140.083333333333,-8.93333333333333
"95",Baie Ugue,New Caledonia,Oceania,-21.1475173957956,165.556882187692,57325.000000,57260.000000,BAIE UGUE,NC,-21.150000,165.550000,21.000000,9.000000,S,165.000000,33.000000,E,"126","82684",V,OR,F,,,,Y,Y,,G,J,,1.000000,L,,,,,Y,,Y,,,,Y,Y,Y,Y,Y,,Y,Y,,,Y,Y,,,,,Y,,Y,,,,,,,,Y,,,,,,,,,,,,,,"1",0.0073162716637773,165.556882187692,-21.1475173957956,165.55,-21.15
"96",Bajo Grande,Venezuela,Latin-America,10.458288867045,-71.5817770235252,12034.000000,11950.000000,BAJO GRANDE,VE,10.516667,-71.633333,10.000000,31.000000,N,71.000000,38.000000,W,"148","24482",V,LC,F,N,N,N,Y,N,H,,,H,1.000000,L,,Y,,,Y,Y,Y,Y,Y,,Y,Y,,Y,,,Y,Y,Y,,Y,Y,,,,,,,Y,,,,,,,,Y,,,,,,Y,Y,,,,C,,,"1",0.0778846619669284,-71.5817770235252,10.458288867045,-71.6333333333333,10.5166666666667
"97",Bakar,Croatia,Mediterranean,45.2895404649387,14.5421322351306,41030.000000,40877.000000,BAKAR,HR,45.300000,14.533333,45.000000,18.000000,N,14.000000,32.000000,E,"132",2719UK,S,CN,F,Y,N,N,Y,,A,A,E,K,0.000000,L,,,,N,Y,Y,Y,,,,,,,,,,Y,,Y,Y,Y,,,,,Y,Y,,N,,,,,Y,Y,Y,,,,,,Y,Y,Y,Y,Y,Y,,,S,"1",0.0136683044499808,14.5421322351306,45.2895404649387,14.5333333333333,45.3
"98",Baku Port,Azerbaijan,Asia,40.2846105217839,49.7325239738536,44350.000000,44275.000000,BATUMI,GE,41.650000,41.650000,41.000000,39.000000,N,41.000000,39.000000,E,BA24,"55139",S,CB,G,N,Y,N,Y,,K,L,L,L,1.000000,M,Y,,Y,N,Y,Y,Y,,Y,,Y,,Y,Y,,,Y,,Y,Y,Y,,Y,,,Y,Y,,Y,Y,Y,Y,,,,Y,,,,,,Y,Y,,,,,C,,S,"1",8.19704106462455,49.7325239738536,40.2846105217839,41.65,41.65
"99",Balboa,Panama,Latin-America,8.95532194954856,-79.5654719348011,15410.000000,15380.000000,BALBOA,PA,8.950000,-79.566667,8.000000,57.000000,N,79.000000,34.000000,W,"153",21602/3,M,LC,G,N,N,N,N,Y,H,J,F,K,5.000000,L,Y,Y,Y,Y,Y,Y,Y,,Y,,Y,Y,Y,Y,Y,Y,Y,Y,Y,Y,Y,N,N,N,N,Y,Y,,Y,Y,Y,,Y,,,,Y,,N,Y,Y,Y,Y,Y,Y,Y,Y,A,L,M,"1",0.00545440475468934,-79.5654719348011,8.95532194954856,-79.5666666666667,8.95
"100",Balikpapa,Indonesia,Asia,-1.20253448577112,116.795979950749,51840.000000,51760.000000,BALIKPAPAN,ID,-1.250000,116.816667,1.000000,15.000000,S,116.000000,49.000000,E,"163","72101",S,CN,E,N,N,N,Y,,H,H,J,J,9.000000,M,,,Y,N,Y,Y,Y,,,N,Y,Y,,Y,,,Y,,Y,,Y,,,,,Y,,,Y,,Y,Y,,,Y,,Y,,,,,Y,Y,Y,Y,N,N,C,S,,"1",0.051777555528024,116.795979950749,-1.20253448577112,116.816666666667,-1.25
"101",Baltimore,U.S.A.,North-America,39.259760370817,-76.5569732963815,8210.000000,6585.000000,BALTIMORE,US,39.266667,-76.583333,39.000000,16.000000,N,76.000000,35.000000,W,CP03,"12281",L,RN,G,N,N,N,Y,Y,G,G,G,J,1.000000,L,,Y,Y,Y,Y,Y,,,,,Y,Y,Y,,Y,Y,Y,Y,Y,Y,Y,,,,,Y,Y,,Y,Y,Y,Y,Y,Y,Y,Y,Y,Y,Y,Y,Y,Y,Y,Y,Y,Y,Y,A,L,L,"1",0.0272497425761326,-76.5569732963815,39.259760370817,-76.5833333333333,39.2666666666667
"102",Baltiysk,Russia,Eastern-Europe,54.6377137559805,19.9240159229732,28680.000000,28670.000000,BALTIYSK,RU,54.633333,19.900000,54.000000,38.000000,N,19.000000,54.000000,E,"194","44461",S,CB,F,N,N,Y,Y,Y,K,G,L,M,0.000000,L,,Y,,,Y,Y,,,Y,,,,,,Y,Y,Y,,Y,Y,Y,,,,,Y,,,,Y,Y,Y,Y,,,Y,,,,,,Y,Y,Y,,,,C,S,,"1",0.024412141627083,19.9240159229732,54.6377137559805,19.9,54.6333333333333
"103",Bamdar-E Pars Terminal,Iran,Middle-East,27.5636195614538,52.5124299792969,48475.000000,48410.000000,BANDAR-E PARS TERMINAL,IR,27.533333,52.533333,27.000000,32.000000,N,52.000000,32.000000,E,"172","62520",V,OR,P,Y,Y,,,,,A,L,A,0.000000,M,,,,N,,,Y,,,,,,,,,,,,,,,,,,,,,,,,,,,,,,,,,,,,,,,,,,,,"1",0.0367995356456403,52.5124299792969,27.5636195614538,52.5333333333333,27.5333333333333
"104",Bamdar-E Shahid Reajie,Iran,Middle-East,27.1396048233784,56.0628267888962,48495.000000,48410.000000,BANDAR-E SHAHID REAJIE,IR,27.100000,56.066667,27.000000,6.000000,N,56.000000,4.000000,E,"172","62395",S,CB,F,,,,,Y,H,J,G,G,4.000000,M,Y,,N,N,Y,Y,,,,,Y,Y,Y,,,,Y,,Y,Y,Y,Y,Y,,,Y,Y,,N,Y,Y,,,Y,,Y,Y,,,,,Y,Y,Y,Y,Y,,C,,S,"1",0.039790535258134,56.0628267888962,27.1396048233784,56.0666666666667,27.1
"105",Bandar Abbas,Iran,Middle-East,27.1475000836353,56.2029451245108,48520.000000,48410.000000,BANDAR ABBAS,IR,27.150000,56.200000,27.000000,9.000000,N,56.000000,12.000000,E,"172","62394",M,CB,F,Y,Y,N,Y,Y,L,C,K,K,2.000000,M,Y,Y,N,N,Y,Y,Y,,Y,,Y,Y,Y,,Y,Y,Y,Y,,,Y,Y,,,,Y,Y,,N,,Y,Y,,Y,Y,Y,Y,,,,,,N,Y,Y,Y,N,C,,,"1",0.00386307393332927,56.2029451245108,27.1475000836353,56.2,27.15
"106",Bandar Khomeyni,Iran,Middle-East,30.4356647041347,49.0676142548043,48460.000000,48410.000000,BANDAR KHOMEYNI,IR,30.433333,49.083333,30.000000,26.000000,N,49.000000,5.000000,E,"172","62442",S,OR,G,Y,N,N,Y,,F,A,H,,4.000000,L,,,Y,N,Y,Y,,,Y,,Y,Y,,,Y,Y,Y,Y,Y,Y,Y,,,,,Y,Y,,Y,,Y,,,,Y,Y,Y,Y,Y,Y,Y,Y,Y,Y,Y,N,N,B,,M,"1",0.0158910263864236,49.0676142548043,30.4356647041347,49.0833333333333,30.4333333333333
"107",Bandirma,Turkey,Mediterranean,40.3530646248785,27.9577433426692,44650.000000,44360.000000,BANDIRMA,TR,40.350000,27.966667,40.000000,21.000000,N,27.000000,58.000000,E,BA24,55043/0,V,CB,F,N,N,N,Y,,A,J,L,,0.000000,M,Y,,Y,N,Y,Y,Y,,,N,Y,Y,Y,Y,Y,,Y,,Y,Y,Y,Y,N,N,N,Y,Y,,Y,,Y,,,,Y,,Y,,,,,Y,Y,Y,N,,,C,,M,"1",0.00943491583479086,27.9577433426692,40.3530646248785,27.9666666666667,40.35
"108",Banghazi,Libya,Africa,32.1115254037845,20.0473739165389,45280.000000,45200.000000,BANGHAZI,LY,32.116667,20.050000,32.000000,7.000000,N,20.000000,3.000000,E,"132","56182",M,CB,G,N,N,N,Y,,H,A,M,M,1.000000,L,Y,Y,N,Y,Y,Y,,,Y,,Y,Y,,Y,Y,N,Y,N,Y,Y,Y,Y,,,,Y,,,N,,Y,Y,Y,Y,Y,Y,Y,Y,,,,,Y,Y,Y,Y,Y,B,S,S,"1",0.00577311859989576,20.0473739165389,32.1115254037845,20.05,32.1166666666667
"109",Bangkok,Thailand,Asia,13.6835093232713,100.572584423705,57450.000000,57431.000000,BANGKOK,TH,13.750000,100.500000,13.000000,45.000000,N,100.000000,30.000000,E,"161",93240/2,L,RN,G,,Y,N,Y,Y,L,H,L,L,3.000000,M,,Y,Y,Y,Y,Y,Y,,Y,Y,Y,Y,Y,Y,,,Y,Y,Y,Y,Y,,,,,Y,Y,,N,Y,Y,,,Y,Y,Y,Y,Y,N,Y,Y,Y,Y,Y,Y,N,Y,C,M,,"1",0.0984353018810074,100.572584423705,13.6835093232713,100.5,13.75
"110",Banjarmasin,Indonesia,Asia,-3.28802140750216,114.562926975146,51890.000000,51760.000000,BANJARMASIN,ID,-3.333333,114.583333,3.000000,20.000000,S,114.000000,35.000000,E,"163","72060",V,RN,E,,,,Y,Y,O,C,K,C,2.000000,M,N,,,,Y,Y,Y,,,,Y,Y,,Y,,,Y,Y,Y,,Y,,,,,Y,,,N,Y,Y,Y,,Y,Y,Y,Y,,,,,,Y,Y,,,,C,S,S,"1",0.0496949703390456,114.562926975146,-3.28802140750216,114.583333333333,-3.33333333333333
"111",Banjul,Gambia,Africa,13.4444355239044,-16.5741516847374,45825.000000,45824.000000,BANJUL,GM,13.450000,-16.566667,13.000000,27.000000,N,16.000000,34.000000,W,"143","51032",V,RN,F,Y,N,N,Y,N,L,G,K,N,2.000000,M,Y,Y,Y,Y,Y,Y,,,,,Y,Y,Y,Y,Y,,Y,Y,Y,,Y,Y,Y,,,Y,Y,,Y,,Y,,,,,Y,Y,Y,,,,Y,Y,Y,N,Y,Y,C,,,"1",0.00932678346149323,-16.5741516847374,13.4444355239044,-16.5666666666667,13.45
"112",Banten,Indonesia,Asia,-6.01693180792458,105.967567586818,50925.000000,50920.000000,BANTEN,ID,-6.016667,105.966667,6.000000,1.000000,S,105.000000,58.000000,E,"163","71180",V,OR,P,,,,Y,,G,C,G,E,0.000000,M,,,,,Y,Y,Y,,Y,,Y,Y,,Y,,,Y,Y,,Y,Y,,,,,Y,Y,,,,Y,Y,Y,Y,Y,Y,Y,,,,,Y,Y,Y,N,,,C,,,"1",0.000939125660630154,105.967567586818,-6.01693180792458,105.966666666667,-6.01666666666667
"113",Banzart,Tunisia,Africa,37.2599330125266,9.87308766594374,45440.000000,45360.000000,BANZART,TN,37.283333,9.883333,37.000000,17.000000,N,9.000000,53.000000,E,"131",52184/3,S,CB,G,N,N,N,Y,Y,J,A,L,,0.000000,L,Y,,Y,N,Y,Y,Y,,N,,Y,Y,Y,,N,,Y,Y,Y,N,Y,,Y,,,Y,Y,,Y,,Y,Y,,Y,,Y,Y,Y,,,,Y,Y,Y,,Y,Y,B,L,,"1",0.0255450330615619,9.87308766594374,37.2599330125266,9.88333333333333,37.2833333333333
"114",Bar,Montenegro,Mediterranean,42.0884991167346,19.0845482796169,41640.000000,41560.000000,BAR,ME,42.083333,19.083333,42.000000,5.000000,N,19.000000,5.000000,E,"132","54240",S,CB,F,N,N,N,Y,N,E,A,K,H,1.000000,L,Y,Y,Y,N,Y,Y,Y,,,,Y,,Y,,Y,Y,Y,Y,Y,,Y,,,,,Y,Y,,Y,Y,Y,Y,,Y,Y,Y,Y,,,Y,Y,,Y,Y,Y,Y,Y,A,M,,"1",0.00530673276327497,19.0845482796169,42.0884991167346,19.0833333333333,42.0833333333333
"115",Barbor's Point,U.S.A.,North-America,21.3105197042493,-158.104028739402,56272.000000,56050.000000,BARBER'S POINT,US,21.316667,-158.116667,21.000000,19.000000,N,158.000000,7.000000,W,CP07,"193991",V,CB,F,,,,Y,Y,H,A,J,N,1.000000,M,,,,,,Y,Y,,,N,N,,Y,Y,Y,Y,Y,,,,,,,,,Y,N,,,,,,,,,,,Y,Y,Y,Y,Y,Y,Y,Y,Y,Y,A,M,,"1",0.0140535530205377,-158.104028739402,21.3105197042493,-158.116666666667,21.3166666666667
"116",Barcelona,Spain,Mediterranean,41.3379783937254,2.14648989874418,38550.000000,38340.000000,BARCELONA,ES,41.350000,2.166667,41.000000,21.000000,N,2.000000,10.000000,E,"131",52122/0,L,CB,G,N,Y,N,Y,,K,A,F,,1.000000,L,Y,Y,Y,Y,Y,Y,Y,,,,Y,Y,Y,Y,Y,Y,Y,Y,Y,Y,Y,,,,,Y,Y,,Y,Y,Y,,,Y,Y,,Y,Y,Y,Y,Y,,Y,Y,Y,Y,Y,B,M,S,"1",0.0234866128085669,2.14648989874418,41.3379783937254,2.16666666666667,41.35
"117",Bari,Italy,Mediterranean,41.1375454163262,16.8673909255245,40530.000000,40390.000000,BARI,IT,41.133333,16.866667,41.000000,8.000000,N,16.000000,52.000000,E,"131","54081",M,CB,G,Y,Y,N,Y,,J,K,J,H,0.000000,M,N,,Y,N,Y,Y,Y,,Y,Y,Y,Y,Y,,Y,,Y,Y,Y,Y,Y,,,,,Y,Y,,Y,,Y,Y,,,,Y,Y,,,,,Y,Y,Y,Y,,,C,M,L,"1",0.00427389682041055,16.8673909255245,41.1375454163262,16.8666666666667,41.1333333333333
"118",Barranquilla,Colombia,Latin-America,10.995983140658,-74.7794609659298,11930.000000,11860.000000,BARRANQUILLA,CO,10.966667,-74.766667,10.000000,58.000000,N,74.000000,46.000000,W,"148","24502",M,RN,E,N,Y,N,Y,Y,L,J,K,,2.000000,L,N,Y,Y,N,Y,Y,Y,,Y,,Y,Y,,Y,Y,Y,Y,Y,Y,Y,Y,Y,,,,Y,,,Y,Y,Y,,Y,Y,,Y,Y,Y,,Y,Y,Y,Y,Y,,,Y,B,S,S,"1",0.0319867119429227,-74.7794609659298,10.995983140658,-74.7666666666667,10.9666666666667
"119",Barry,United Kingdom,Western-Europe,51.4046725485087,-3.24711929201191,34990.000000,34710.000000,BARRY,GB,51.400000,-3.266667,51.000000,24.000000,N,3.000000,16.000000,W,"142","36041",M,CT,E,N,N,N,Y,Y,P,K,L,L,10.000000,M,,,N,Y,Y,Y,Y,Y,Y,,Y,Y,Y,,Y,Y,Y,,Y,Y,Y,,,,,Y,Y,,Y,Y,Y,Y,,Y,Y,Y,Y,Y,,Y,Y,,Y,Y,Y,Y,Y,A,,,"1",0.0200980736753391,-3.24711929201191,51.4046725485087,-3.26666666666667,51.4
"120",Basseterre,Saint Kitts and Nevis,Caribbean,17.2873564832575,-62.7084669929425,11400.000000,11392.000000,BASSETERRE,KN,17.300000,-62.716667,17.000000,18.000000,N,62.000000,43.000000,W,"147","25608",V,OR,F,Y,Y,N,N,N,B,B,L,N,0.000000,L,Y,Y,Y,N,Y,Y,Y,,Y,N,Y,Y,,Y,Y,,Y,,Y,Y,Y,,,,,Y,Y,,Y,Y,Y,,Y,Y,Y,Y,Y,,,,,,Y,Y,,Y,Y,C,,S,"1",0.0150696106386731,-62.7084669929425,17.2873564832575,-62.7166666666667,17.3
"121",Basuo,China,Asia,19.0786961219098,108.629352895183,57768.000000,57740.000000,BASUO,CN,19.100000,108.616667,19.000000,6.000000,N,108.000000,37.000000,E,"161","93688",S,CB,G,Y,Y,,Y,,L,J,L,L,2.000000,M,Y,Y,,,Y,Y,Y,,,,Y,Y,,Y,,,Y,,,Y,Y,,,,,Y,,,,Y,Y,N,,,,Y,Y,,,,,Y,Y,Y,,,,C,,M,"1",0.0247950724067682,108.629352895183,19.0786961219098,108.616666666667,19.1
"122",Bata,Equatorial Guinea,Africa,1.82562591586157,9.73914696780476,46305.000000,46300.000000,BATA,GQ,1.866667,9.766667,1.000000,52.000000,N,9.000000,46.000000,E,"123","57170",V,OR,P,,Y,,Y,,J,J,G,J,2.000000,L,Y,,,,Y,,Y,,,,Y,,,,,Y,,,Y,,Y,Y,,,,Y,,,N,Y,Y,,,,,Y,Y,Y,Y,,,N,Y,N,N,N,N,D,,,"1",0.0494133286886839,9.73914696780476,1.82562591586157,9.76666666666667,1.86666666666667
"123",Batangas City,Philippines,Asia,13.7447709190043,121.023917294221,58320.000000,57960.000000,BATANGAS CITY,PH,13.750000,121.050000,13.000000,45.000000,N,121.000000,3.000000,E,"162","91309",M,OR,G,N,N,N,,,A,B,J,G,1.000000,L,Y,Y,Y,N,Y,Y,Y,,Y,,Y,Y,,Y,,,Y,,,Y,Y,Y,,,,Y,Y,,N,,Y,Y,,,Y,Y,Y,,,Y,Y,,Y,Y,,,,B,M,S,"1",0.0266017072541921,121.023917294221,13.7447709190043,121.05,13.75
"124",Baton Rouge,U.S.A.,North-America,30.3800146876922,-91.1895979533652,8970.000000,8650.000000,BATON ROUGE,US,30.450000,-91.183333,30.000000,27.000000,N,91.000000,11.000000,W,CP05,11370SC,S,RN,G,N,N,N,N,Y,H,H,K,J,3.000000,L,Y,Y,Y,N,Y,Y,,,Y,,Y,,Y,,Y,Y,Y,Y,Y,Y,Y,,Y,,,Y,Y,,Y,Y,Y,,Y,Y,Y,Y,Y,Y,,Y,Y,Y,Y,Y,Y,Y,Y,A,S,S,"1",0.0702651364687012,-91.1895979533652,30.3800146876922,-91.1833333333333,30.45
"125",Batumi,Georgia,Eastern-Europe,41.6486002209649,41.6686352333039,44350.000000,44275.000000,BATUMI,GE,41.650000,41.650000,41.000000,39.000000,N,41.000000,39.000000,E,BA24,"55139",S,CB,G,N,Y,N,Y,,K,L,L,L,1.000000,M,Y,,Y,N,Y,Y,Y,,Y,,Y,,Y,Y,,,Y,,Y,Y,Y,,Y,,,Y,Y,,Y,Y,Y,Y,,,,Y,,,,,,Y,Y,,,,,C,,S,"1",0.0186877313132573,41.6686352333039,41.6486002209649,41.65,41.65
"126",Baubau,Indonesia,Asia,-5.48608746190785,122.584379592304,52260.000000,51970.000000,BAUBAU,ID,-5.466667,122.616667,5.000000,28.000000,S,122.000000,37.000000,E,"163","73261",V,CN,G,Y,,,,,N,A,O,M,4.000000,M,Y,,,,,,,,,,,Y,,Y,Y,,Y,Y,,,,Y,,,,Y,Y,,,,,,,,,,,,,,,Y,,,,,,D,,,"1",0.0376778775768377,122.584379592304,-5.48608746190785,122.616666666667,-5.46666666666667
"127",Bay City,U.S.A.,North-America,43.6258059167264,-83.8502534152142,4400.000000,4300.000000,BAY CITY,US,43.600000,-83.866667,43.000000,36.000000,N,83.000000,52.000000,W,CP06,"14867",S,RN,E,N,N,Y,,Y,L,M,M,N,0.000000,M,Y,Y,Y,N,N,Y,,,,N,Y,Y,Y,,Y,Y,Y,,Y,Y,Y,,,,,Y,,,N,Y,Y,,,Y,,,Y,Y,,,,Y,Y,Y,Y,Y,Y,A,S,,"1",0.0305833314295998,-83.8502534152142,43.6258059167264,-83.8666666666667,43.6
"128",Bayonne,France,Western-Europe,43.5282532181942,-1.4979277886543,37230.000000,36450.000000,BAYONNE,FR,43.500000,-1.466667,43.000000,30.000000,N,1.000000,28.000000,W,"143",37441/3,M,RN,E,Y,,,Y,,N,A,K,,3.000000,L,N,N,Y,N,Y,Y,,,Y,,Y,Y,Y,Y,Y,Y,Y,,Y,Y,Y,,,,,Y,,,Y,Y,Y,,,Y,Y,Y,Y,,,Y,Y,Y,Y,Y,Y,Y,Y,C,S,,"1",0.042136707112114,-1.4979277886543,43.5282532181942,-1.46666666666667,43.5
"129",Bayrut,Lebanon,Middle-East,33.9023418302792,35.5285262621455,45030.000000,45020.000000,BAYRUT,LB,33.900000,35.500000,33.000000,54.000000,N,35.000000,30.000000,E,"132","56043",L,CB,E,N,Y,N,Y,,G,A,F,K,0.000000,M,Y,,Y,,Y,Y,Y,,,Y,Y,Y,Y,,,,Y,,Y,Y,Y,Y,Y,,,Y,Y,,N,Y,Y,,Y,Y,Y,Y,Y,N,N,Y,Y,Y,Y,,Y,Y,Y,B,L,L,"1",0.0286222256481185,35.5285262621455,33.9023418302792,35.5,33.9
"130",Bayuquan,China,Asia,40.2651299966825,122.066842147762,60230.000000,59850.000000,BAYUQUAN,CN,40.300000,122.083333,40.000000,18.000000,N,122.000000,5.000000,E,"157","94380",V,OR,F,Y,,Y,,,G,J,J,J,8.000000,M,,Y,N,,Y,Y,Y,,,,Y,Y,,Y,,,Y,,,Y,Y,,,,,,,,,,,,,,,,Y,,,,,,,,,,,,,S,"1",0.0385730000505948,122.066842147762,40.2651299966825,122.083333333333,40.3
"131",Beaumont,U.S.A.,North-America,30.0258232154448,-94.0302827547773,9140.000000,8650.000000,BEAUMONT,US,30.083333,-94.083333,30.000000,5.000000,N,94.000000,5.000000,W,CP05,"11343",M,RN,G,Y,N,Y,Y,Y,J,L,L,L,0.000000,L,,Y,Y,,Y,Y,Y,,Y,,Y,Y,,,Y,Y,,Y,Y,Y,Y,,,,,Y,Y,,N,,Y,Y,,Y,Y,Y,Y,Y,Y,Y,Y,Y,Y,Y,Y,Y,Y,A,S,S,"1",0.0782417889921202,-94.0302827547773,30.0258232154448,-94.0833333333333,30.0833333333333
"132",Bedyansk,Ukraine,Eastern-Europe,46.7524714616319,36.7765691818428,44000.000000,43620.000000,BERDYANSK,UA,46.750000,36.783333,46.000000,45.000000,N,36.000000,47.000000,E,BA24,"55190",S,CB,F,N,Y,Y,Y,,N,L,L,L,0.000000,M,Y,N,Y,N,Y,Y,Y,,Y,N,Y,Y,N,Y,,,Y,,Y,Y,Y,,,,,Y,Y,,N,Y,Y,,,,Y,Y,Y,,,,,Y,Y,Y,Y,,Y,C,,S,"1",0.00720151844990234,36.7765691818428,46.7524714616319,36.7833333333333,46.75
"133",Beihai,China,Asia,21.4725514790504,109.06715220453,57750.000000,57740.000000,BEIHAI,CN,21.483333,109.066667,21.000000,29.000000,N,109.000000,4.000000,E,"161","93652",V,OR,G,Y,,,Y,Y,J,K,J,J,3.000000,M,,Y,Y,Y,Y,,Y,,,,,Y,,Y,,,Y,,Y,,Y,Y,,,,Y,,,N,,Y,,,Y,Y,Y,Y,Y,,Y,Y,,Y,,,,,C,,,"1",0.0107927813280598,109.06715220453,21.4725514790504,109.066666666667,21.4833333333333
"134",Beira,Mozambique,Africa,-19.8110703989121,34.8398389490282,46890.000000,46860.000000,BEIRA,MZ,-19.833333,34.833333,19.000000,50.000000,S,34.000000,50.000000,E,"171",61142/1,M,CN,G,Y,Y,N,Y,,N,L,L,L,5.000000,M,N,Y,Y,N,Y,Y,Y,,Y,,Y,Y,Y,,Y,Y,Y,,Y,Y,Y,,,,,Y,Y,,N,Y,Y,,,Y,Y,Y,Y,Y,Y,Y,Y,Y,Y,Y,Y,Y,Y,A,M,L,"1",0.0231939924250684,34.8398389490282,-19.8110703989121,34.8333333333333,-19.8333333333333
"135",Bejaia,Algeria,Africa,36.7456077178899,5.08229510345713,45550.000000,45470.000000,BEJAIA,DZ,36.750000,5.083333,36.000000,45.000000,N,5.000000,5.000000,E,"131","52221",S,CB,G,N,Y,N,Y,,G,K,K,,0.000000,M,Y,,,N,Y,Y,Y,,Y,,Y,Y,,,Y,,Y,,Y,Y,Y,Y,Y,,,Y,Y,,Y,Y,,,,Y,,Y,Y,Y,Y,Y,Y,Y,Y,Y,Y,N,Y,A,L,M,"1",0.00451332066341025,5.08229510345713,36.7456077178899,5.08333333333333,36.75
"136",Belawan,Indonesia,Asia,3.78854270965487,98.7073659759585,50730.000000,50515.000000,BELAWAN,ID,3.783333,98.683333,3.000000,47.000000,N,98.000000,41.000000,E,"174","71071",M,RN,G,N,N,N,Y,N,L,L,K,N,2.000000,L,Y,Y,Y,N,Y,Y,Y,,Y,,Y,,Y,Y,,,Y,,Y,Y,Y,Y,,,,Y,,,N,Y,Y,Y,,,Y,Y,Y,Y,N,Y,Y,Y,Y,Y,Y,Y,Y,C,S,,"1",0.024590760728491,98.7073659759585,3.78854270965487,98.6833333333333,3.78333333333333
"137",Belem,Brazil,Latin-America,-1.50069021450178,-48.6598585970612,12491.000000,12470.000000,VILA DO CONDE,BR,-1.550000,-48.750000,1.000000,33.000000,S,48.000000,45.000000,W,"124","24020",V,RN,F,,,,Y,,J,G,G,G,2.000000,L,,Y,,,Y,Y,,,,N,N,Y,,,,,Y,Y,Y,N,,Y,Y,,,N,Y,,N,Y,,,,,,Y,Y,,,,,Y,Y,Y,,,,C,,,"1",0.102746909781506,-48.6598585970612,-1.50069021450178,-48.75,-1.55
"138",Belfast,United Kingdom,Western-Europe,54.6230183777325,-5.89247960204705,33770.000000,33630.000000,BELFAST,GB,54.616667,-5.900000,54.000000,37.000000,N,5.000000,54.000000,W,"142","36011",L,RB,E,N,N,N,Y,,L,K,K,J,2.000000,L,Y,Y,Y,Y,Y,Y,Y,,Y,Y,Y,Y,Y,,,,Y,Y,Y,Y,Y,N,N,N,N,Y,Y,,Y,Y,Y,Y,,,Y,Y,Y,Y,,Y,Y,Y,Y,Y,Y,Y,Y,A,L,S,"1",0.00984381119458676,-5.89247960204705,54.6230183777325,-5.9,54.6166666666667
"139",Belize City,Belize,Latin-America,17.4814965843284,-88.2024277837942,9590.000000,9580.000000,BELIZE CITY,BZ,17.500000,-88.183333,17.000000,30.000000,N,88.000000,11.000000,W,"148","28168",S,OR,G,N,N,N,N,N,E,L,K,N,1.000000,L,Y,N,Y,Y,Y,Y,Y,,Y,N,Y,Y,,Y,,,Y,,Y,,Y,Y,,,,Y,N,,N,Y,Y,,,Y,Y,Y,Y,,,,,,Y,,,,,B,,S,"1",0.026588990765329,-88.2024277837942,17.4814965843284,-88.1833333333333,17.5
"140",Bellingham,U.S.A.,North-America,48.7563884219091,-122.500255013308,18050.000000,16000.000000,BELLINGHAM,US,48.750000,-122.500000,48.000000,45.000000,N,122.000000,30.000000,W,CP07,"18424",S,CN,E,N,N,N,Y,,,K,K,N,5.000000,L,N,Y,Y,,Y,Y,,,Y,,Y,Y,,,Y,Y,Y,Y,Y,Y,Y,Y,,,,Y,Y,,N,Y,Y,Y,,Y,Y,,Y,Y,Y,Y,Y,Y,Y,Y,Y,Y,Y,B,,M,"1",0.00639350969932982,-122.500255013308,48.7563884219091,-122.5,48.75
"141",Benicia,U.S.A.,North-America,38.052037097691,-122.131921779509,16470.000000,16000.000000,BENICIA,US,38.050000,-122.150000,38.000000,3.000000,N,122.000000,9.000000,W,CP07,"18657",V,CN,E,N,N,N,Y,Y,K,,K,,4.000000,,,,,N,Y,Y,Y,,,N,Y,,,,Y,Y,,,Y,Y,Y,,,,,Y,Y,,,,,,,,,,Y,Y,N,Y,Y,Y,Y,Y,Y,Y,Y,,M,,"1",0.0181926310117081,-122.131921779509,38.052037097691,-122.15,38.05
"142",Benoa,Indonesia,Asia,-8.63120826748563,115.353460168522,51260.000000,51250.000000,BENOA,ID,-8.750000,115.216667,8.000000,45.000000,S,115.000000,13.000000,E,"163",72204/3,V,CN,F,,Y,,Y,,L,B,L,N,2.000000,M,,Y,,,Y,Y,Y,,,,Y,Y,,Y,,,Y,Y,Y,,Y,,,,,Y,N,,,,Y,,,,Y,,Y,,,,,,Y,Y,N,,,N,,,"1",0.181173778079557,115.353460168522,-8.63120826748563,115.216666666667,-8.75
"143",Berbera,Somalia,Africa,10.4329427006309,44.9969791013935,47820.000000,47810.000000,BERBERA,SO,10.450000,45.016667,10.000000,27.000000,N,45.000000,1.000000,E,"172","62091",S,CB,F,N,N,N,Y,,J,E,L,L,2.000000,M,,,Y,N,Y,Y,Y,,,,,,,,,,Y,,Y,,Y,Y,,,,Y,,,N,Y,Y,,,,Y,,Y,Y,,,,,Y,N,N,N,N,C,,,"1",0.0260490247063539,44.9969791013935,10.4329427006309,45.0166666666667,10.45
"144",Bergen,Norway,Northern-Europe,60.4016112969959,5.22700727311137,23180.000000,20620.000000,BRATTHOLMEN,NO,60.350000,5.166667,60.000000,21.000000,N,5.000000,10.000000,E,"182","43321",V,CN,G,N,N,N,Y,,A,J,O,,0.000000,M,,,N,N,Y,,,,,,,,,,Y,,,,,,Y,Y,,,,,,,N,,,,,,,,,,,,,Y,Y,Y,,,,,,,"1",0.0794022339969854,5.22700727311137,60.4016112969959,5.16666666666667,60.35
"145",Big Creek,Belize,Latin-America,16.5153960386476,-88.4036389959754,9620.000000,9600.000000,PUERTO BARRIOS,GT,15.733333,-88.600000,15.000000,44.000000,N,88.000000,36.000000,W,"148","28165",S,OR,F,N,N,N,Y,N,K,L,L,,1.000000,M,N,Y,Y,N,Y,Y,Y,,Y,N,Y,,,,,,Y,,,Y,Y,,,,,Y,Y,,N,,,,,,,,Y,,,,,,Y,,,,,B,,S,"1",0.806337224084962,-88.4036389959754,16.5153960386476,-88.6,15.7333333333333
"146",Bintulu Port,Malaysia,Asia,3.27102354947947,113.077425951189,51585.000000,51550.000000,BINTULU PORT,MY,3.266667,113.066667,3.000000,16.000000,N,113.000000,4.000000,E,"163",71401/2,S,CB,P,Y,N,N,Y,N,H,C,H,G,1.000000,L,Y,Y,N,N,Y,Y,Y,,,N,Y,,Y,Y,Y,,Y,,Y,,Y,Y,,,,Y,Y,,N,Y,Y,,,Y,Y,Y,Y,,,,,Y,Y,Y,Y,N,N,C,S,,"1",0.0116079555168593,113.077425951189,3.27102354947947,113.066666666667,3.26666666666667
"147",Bissau,Guinea-Bissau,Africa,11.8599721411082,-15.5761804975375,45838.000000,45833.000000,BISSAU,GW,11.866667,-15.633333,11.000000,52.000000,N,15.000000,38.000000,W,"143","51580",V,RN,G,Y,,N,N,,J,N,L,O,6.000000,L,Y,,Y,Y,Y,Y,Y,,Y,N,N,Y,Y,Y,Y,,Y,Y,Y,,Y,Y,,,,Y,,,,,Y,,,,Y,Y,Y,Y,,Y,Y,Y,Y,,Y,Y,Y,B,,,"1",0.0575435775039651,-15.5761804975375,11.8599721411082,-15.6333333333333,11.8666666666667
"148",Bitung,Indonesia,Asia,1.44034433325191,125.176868486974,52065.000000,51970.000000,BITUNG,ID,1.433333,125.183333,1.000000,26.000000,N,125.000000,11.000000,E,"163","73014",V,CN,E,,,,Y,,L,A,K,L,4.000000,M,,,,N,Y,Y,Y,,,,Y,Y,,Y,,,Y,Y,Y,,Y,,,,,Y,,,N,,Y,,,,Y,Y,Y,,,,,,Y,,Y,Y,Y,C,,S,"1",0.00953668486975959,125.176868486974,1.44034433325191,125.183333333333,1.43333333333333
"149",Blanglancang,Indonesia,Asia,5.23093980584252,97.065718810307,50652.000000,50020.000000,BLANGLANCANG,ID,5.233333,97.100000,5.000000,14.000000,N,97.000000,6.000000,E,"174","71081",S,TH,F,,,,Y,,G,B,M,G,0.000000,M,,Y,,Y,Y,Y,Y,,,,Y,,Y,Y,Y,Y,Y,Y,Y,Y,Y,Y,,,,Y,,,N,,Y,,,,Y,Y,,,,,,,,,,,,N,,S,"1",0.0343646466680361,97.065718810307,5.23093980584252,97.1,5.23333333333333
"150",Bluff Harbor,New Zealand,Oceania,-46.5901299514686,168.360215982852,55400.000000,55260.000000,BLUFF HARBOR,NZ,-46.600000,168.333333,46.000000,36.000000,S,168.000000,20.000000,E,"127","76121",S,CB,E,,,,Y,Y,H,G,,J,2.000000,M,Y,Y,,,Y,Y,Y,Y,Y,Y,Y,Y,Y,Y,,,Y,Y,Y,Y,Y,,Y,,,Y,Y,,Y,Y,Y,,,Y,Y,,Y,Y,Y,Y,Y,,Y,Y,,Y,Y,A,S,L,"1",0.0286372956675616,168.360215982852,-46.5901299514686,168.333333333333,-46.6
"151",Bohai Bay,China,Asia,38.3231312255875,117.867244476342,60190.000000,59850.000000,TIANJIN XIN GANG,CN,38.966667,117.833333,38.000000,58.000000,N,117.000000,50.000000,E,"157","94364",L,RN,E,Y,,Y,Y,,G,F,B,H,3.000000,L,Y,N,Y,N,Y,Y,,,Y,,Y,Y,,Y,,,Y,Y,Y,Y,Y,Y,,,,Y,Y,,N,Y,Y,,,,Y,Y,Y,Y,,,,Y,Y,Y,Y,,,C,L,L,"1",0.644428296666974,117.867244476342,38.3231312255875,117.833333333333,38.9666666666667
"152",Bonny,Nigeria,Africa,4.42069038769154,7.15702093159352,46205.000000,46120.000000,BONNY,NG,4.450000,7.166667,4.000000,27.000000,N,7.000000,10.000000,E,"123",57141/0,M,RN,G,Y,Y,N,Y,N,G,D,,H,3.000000,L,Y,,Y,N,Y,Y,Y,,,N,N,Y,,,Y,,Y,Y,Y,,Y,Y,,,,Y,,,N,,,,,,,,,,,,,Y,Y,Y,Y,N,N,N,,,"1",0.0308560136565603,7.15702093159352,4.42069038769154,7.16666666666667,4.45
"153",Bontang LNG Terminal,Indonesia,Asia,0.0968865572556536,117.492567372225,51811.000000,51760.000000,BONTANG LNG TERMINAL,ID,0.100000,117.483333,0.000000,6.000000,N,117.000000,29.000000,E,"163","72109",V,CN,F,,,,Y,,H,B,H,H,8.000000,L,Y,Y,Y,N,Y,Y,Y,,,,Y,,,,,,Y,Y,Y,,Y,,,,,N,N,,N,N,Y,N,Y,,,,Y,,,,,Y,Y,,,,,N,,,"1",0.00974479348023521,117.492567372225,0.0968865572556536,117.483333333333,0.1
"154",Boosaaso,Somalia,Africa,11.2906122962933,49.1811278293041,47830.000000,47810.000000,BOOSAASO,SO,11.283333,49.183333,11.000000,17.000000,N,49.000000,11.000000,E,"172","62070",S,CB,,,,,Y,,,E,M,,0.000000,M,Y,,,,,,Y,,,,,,,,,,,,,,,,,,,,,,,,,,,,,,,,,,,,,,,,,,,,"1",0.00760575767397963,49.1811278293041,11.2906122962933,49.1833333333333,11.2833333333333
"155",Bordeaux,France,Western-Europe,44.9019741205766,-0.533966694747299,37190.000000,36450.000000,BORDEAUX,FR,44.866667,-0.566667,44.000000,52.000000,N,0.000000,34.000000,W,"143","37423",L,RT,E,N,Y,N,,Y,H,K,L,,0.000000,L,,Y,Y,Y,Y,Y,,,Y,,Y,Y,Y,Y,Y,Y,Y,Y,Y,Y,Y,,,,,Y,Y,,Y,Y,Y,Y,Y,Y,Y,Y,Y,,,Y,Y,Y,Y,Y,Y,Y,Y,A,M,,"1",0.0481238450784095,-0.533966694747299,44.9019741205766,-0.566666666666667,44.8666666666667
"156",Boston,U.S.A.,North-America,42.3771752149563,-71.0361715359718,7250.000000,6585.000000,BOSTON,US,42.350000,-71.050000,42.000000,21.000000,N,71.000000,3.000000,W,CP01,"13270",L,CN,E,N,N,N,N,Y,J,H,H,J,10.000000,L,Y,Y,Y,Y,Y,Y,Y,,,,Y,Y,Y,,Y,Y,Y,Y,Y,Y,Y,,,,,Y,Y,Y,N,Y,Y,Y,Y,,,Y,Y,Y,Y,Y,Y,Y,Y,Y,Y,Y,Y,A,L,L,"1",0.0304912893348286,-71.0361715359718,42.3771752149563,-71.05,42.35
"157",Boston,United Kingdom,Western-Europe,52.963062080853,-0.0142532557475205,31630.000000,31330.000000,BOSTON,GB,52.966667,-0.016667,52.000000,58.000000,N,0.000000,1.000000,W,"192",UK1200,S,RT,P,Y,N,N,Y,Y,N,L,N,,5.000000,,Y,,Y,N,Y,Y,Y,Y,Y,,Y,,Y,Y,,,Y,,Y,Y,Y,,,,,Y,Y,,N,Y,Y,,,Y,Y,Y,Y,,,,,Y,Y,Y,Y,,,C,,S,"1",0.00433792475188456,-0.0142532557475205,52.963062080853,-0.0166666666666667,52.9666666666667
"158",Botany Bay,Australia,Australia,-33.9815345090186,151.215895193447,53655.000000,53290.000000,BOTANY BAY,AU,-34.000000,151.233333,34.000000,0.000000,S,151.000000,14.000000,E,"127","75263",S,CN,G,N,Y,N,Y,,G,,G,J,4.000000,L,,Y,Y,N,Y,Y,Y,,,N,Y,,,,Y,Y,Y,Y,Y,Y,Y,,,,Y,Y,,,Y,,,,,,,,Y,N,N,Y,N,Y,Y,Y,Y,Y,Y,B,,,"1",0.0253980920521709,151.215895193447,-33.9815345090186,151.233333333333,-34
"159",Botas,Turkey,Mediterranean,36.8767157643925,35.9185727250925,44870.000000,44360.000000,BOTAS,TR,36.883333,35.933333,36.000000,53.000000,N,35.000000,56.000000,E,"132","54481",V,OR,P,N,N,N,Y,,,,A,A,0.000000,L,Y,,Y,N,Y,Y,Y,,,Y,Y,Y,Y,Y,,,Y,,,,,,Y,,,,Y,,,,,,,,,,,,,,,Y,Y,N,N,N,N,N,,,"1",0.0161761483155506,35.9185727250925,36.8767157643925,35.9333333333333,36.8833333333333
"160",Botas Natural Gas Terminal,Turkey,Mediterranean,40.9957964047142,27.961504119191,44542.000000,44360.000000,BOTAS NATURAL GAS TERMINAL,TR,41.000000,27.983333,41.000000,0.000000,N,27.000000,59.000000,E,"132","55042",V,OR,P,,,,Y,,,,,J,0.000000,M,,,,,Y,Y,Y,,,,Y,,,,Y,,Y,,,,Y,,,,,,Y,,N,Y,,,,,,Y,,,,,,Y,Y,Y,Y,,,,,,"1",0.0222302677311375,27.961504119191,40.9957964047142,27.9833333333333,41
"161",Brades,Montserrat,Caribbean,16.8033793285331,-62.2051571231961,11430.000000,11426.000000,ST JOHNS,AG,17.116667,-61.850000,17.000000,7.000000,N,61.000000,51.000000,W,"147","25575",M,OR,F,N,Y,N,Y,N,K,F,G,H,0.000000,L,Y,Y,Y,Y,Y,Y,Y,Y,,,Y,Y,,,Y,,Y,,Y,,Y,,,,,Y,Y,,Y,Y,Y,,Y,Y,,Y,Y,,,,,Y,Y,Y,Y,Y,,C,,,"1",0.473587941560711,-62.2051571231961,16.8033793285331,-61.85,17.1166666666667
"162",Brake,Germany,Western-Europe,53.3435921332028,8.48991010553677,30850.000000,30650.000000,BRAKE,DE,53.333333,8.483333,53.000000,20.000000,N,8.000000,29.000000,E,"192","37235",M,RT,G,Y,N,N,Y,,L,L,J,,4.000000,M,,,Y,N,Y,Y,,,Y,,Y,Y,,,,,Y,Y,Y,Y,Y,,,,,Y,Y,,Y,Y,Y,,,,Y,Y,Y,,,,,Y,Y,Y,Y,,,C,S,,"1",0.0121859307144902,8.48991010553677,53.3435921332028,8.48333333333333,53.3333333333333
"163",Brasil Port,Brazil,Latin-America,-21.8506562119308,-41.0199242739691,12890.000000,12700.000000,MACAE,BR,-22.366667,-41.766667,22.000000,22.000000,S,41.000000,46.000000,W,"124","24160",V,RN,F,,,,Y,,P,O,,N,3.000000,,,,,,Y,,Y,,,,,,,,,Y,,,,Y,,,,,,,,,,,,,,,,,,,,,,Y,Y,,,,,,,,"1",0.907684411262225,-41.0199242739691,-21.8506562119308,-41.7666666666667,-22.3666666666667
"164",Bremen,Germany,Western-Europe,53.0947654590233,8.7770956911749,30900.000000,30650.000000,BREMEN,DE,53.133333,8.766667,53.000000,8.000000,N,8.000000,46.000000,E,"192","37236",L,RT,F,Y,N,N,,,L,L,N,L,4.000000,M,,Y,Y,N,Y,Y,Y,,Y,Y,Y,,Y,Y,Y,Y,Y,,Y,Y,Y,Y,,,,Y,Y,,Y,Y,Y,Y,Y,Y,Y,Y,Y,Y,Y,Y,Y,Y,Y,Y,Y,Y,Y,A,S,,"1",0.0399530409479065,8.7770956911749,53.0947654590233,8.76666666666667,53.1333333333333
"165",Bremerhaven,Germany,Western-Europe,53.5494412415182,8.55505666711423,30810.000000,30650.000000,BREMERHAVEN,DE,53.533333,8.583333,53.000000,32.000000,N,8.000000,35.000000,E,"192","37234",L,RT,E,Y,N,N,Y,Y,J,L,N,,4.000000,M,,Y,Y,N,Y,Y,Y,,Y,N,Y,,Y,Y,Y,Y,Y,,Y,Y,Y,,,,,Y,Y,,Y,Y,Y,Y,Y,Y,Y,Y,Y,Y,,Y,Y,Y,Y,Y,Y,Y,Y,A,S,L,"1",0.0325428111655725,8.55505666711423,53.5494412415182,8.58333333333333,53.5333333333333
"166",Brevik,Norway,Northern-Europe,59.063858062698,9.69228114846339,23660.000000,20620.000000,BREVIK,NO,59.066667,9.700000,59.000000,4.000000,N,9.000000,42.000000,E,"193",43368/56,S,CN,G,N,Y,N,Y,Y,J,E,K,J,1.000000,M,,Y,Y,N,Y,Y,Y,,Y,,Y,Y,Y,,Y,,Y,Y,Y,Y,Y,Y,,,,Y,,,Y,N,N,N,N,N,N,N,Y,,,,,,Y,Y,,,Y,B,,S,"1",0.00821394699866327,9.69228114846339,59.063858062698,9.7,59.0666666666667
"167",Bridgeport,U.S.A.,North-America,41.1690477132683,-73.1696507721771,7570.000000,6585.000000,BRIDGEPORT,US,41.166667,-73.183333,41.000000,10.000000,N,73.000000,11.000000,W,CP02,"12369",M,CB,E,Y,N,N,Y,N,L,G,K,K,7.000000,L,,Y,Y,N,Y,Y,,,,,Y,Y,Y,,Y,Y,Y,Y,Y,Y,Y,,,,,Y,Y,,N,,,,,,,Y,,,,,,Y,Y,Y,Y,Y,Y,C,,S,"1",0.0138881914846473,-73.1696507721771,41.1690477132683,-73.1833333333333,41.1666666666667
"168",Bridgetown,Barbados,Caribbean,13.1066149459862,-59.6274479097132,11690.000000,11675.000000,BRIDGETOWN,BB,13.100000,-59.633333,13.000000,6.000000,N,59.000000,38.000000,W,"147","25487",S,CB,G,N,Y,N,,Y,H,L,J,H,1.000000,L,Y,Y,Y,Y,Y,Y,Y,,Y,N,Y,Y,,Y,,Y,Y,Y,Y,,Y,,,,,Y,Y,,Y,Y,Y,,,Y,Y,Y,Y,,,,,Y,Y,Y,Y,,,C,,,"1",0.00885413584650394,-59.6274479097132,13.1066149459862,-59.6333333333333,13.1
"169",Brighton,Trinidad and Tobago,Caribbean,10.2471712426785,-61.62976161554,11760.000000,11705.000000,BRIGHTON,TT,10.250000,-61.633333,10.000000,15.000000,N,61.000000,38.000000,W,"148","24408",V,OR,P,N,N,N,Y,N,H,H,N,L,1.000000,L,Y,Y,Y,N,Y,Y,Y,,N,N,Y,,,Y,Y,,,Y,Y,,Y,,,,,Y,,,N,,,,,,,,Y,,,,,,Y,Y,,,,,,,"1",0.00455620850918066,-61.62976161554,10.2471712426785,-61.6333333333333,10.25
"170",Brindisi,Italy,Mediterranean,40.6405044644563,17.9810968772985,40500.000000,40390.000000,BRINDISI,IT,40.650000,17.983333,40.000000,39.000000,N,17.000000,59.000000,E,"131",54082/3,L,CB,F,N,N,N,Y,Y,G,A,J,K,1.000000,L,,,Y,N,Y,Y,Y,,Y,,Y,,,Y,,,Y,,Y,Y,Y,,,,,Y,Y,,Y,,Y,Y,,Y,Y,Y,Y,,,,,,Y,Y,Y,Y,Y,C,M,M,"1",0.00975535395856753,17.9810968772985,40.6405044644563,17.9833333333333,40.65
"171",Brisbane,Australia,Australia,-27.4085009725132,153.145583236141,53490.000000,53290.000000,BRISBANE,AU,-27.466667,153.033333,27.000000,28.000000,S,153.000000,2.000000,E,"127","74189",L,RN,E,Y,N,N,Y,Y,L,J,H,G,2.000000,L,,Y,Y,Y,Y,Y,Y,,Y,,Y,Y,Y,Y,Y,Y,Y,Y,Y,Y,Y,Y,,,,Y,Y,,Y,Y,Y,Y,,Y,Y,Y,Y,Y,Y,Y,Y,Y,Y,Y,Y,Y,Y,A,M,,"1",0.126425031764485,153.145583236141,-27.4085009725132,153.033333333333,-27.4666666666667
"172",Brofjorden,Sweden,Northern-Europe,58.3481926723973,11.425689144517,23950.000000,23860.000000,BROFJORDEN,SE,58.383333,11.416667,58.000000,23.000000,N,11.000000,25.000000,E,"193","43384",S,CN,P,,,,,Y,J,M,A,C,0.000000,M,Y,,,,Y,Y,Y,Y,Y,,Y,,Y,,Y,,Y,,,,Y,,Y,,,,Y,,N,,,,,,,,Y,,,,,,Y,Y,Y,,,,,,"1",0.0362804514522273,11.425689144517,58.3481926723973,11.4166666666667,58.3833333333333
"173",Broome,Australia,Australia,-18.0005001985959,122.206739370756,54630.000000,53290.000000,BROOME,AU,-17.966667,122.233333,17.000000,58.000000,S,122.000000,14.000000,E,"175","74016",S,CN,E,Y,N,N,Y,,J,G,L,K,9.000000,M,Y,Y,Y,N,Y,Y,Y,,,N,Y,Y,Y,Y,Y,,Y,,Y,,Y,,,,,Y,Y,,Y,,Y,,,Y,Y,Y,Y,,N,N,,,Y,,Y,N,N,C,,,"1",0.0430342506427684,122.206739370756,-18.0005001985959,122.233333333333,-17.9666666666667
"174",Brownsville,U.S.A.,North-America,25.9585828480826,-97.3815664731883,9340.000000,8650.000000,BROWNSVILLE,US,25.950000,-97.400000,25.000000,57.000000,N,97.000000,24.000000,W,CP05,11302SC,S,LC,G,Y,N,N,N,Y,H,K,K,K,1.000000,L,,Y,Y,N,Y,Y,Y,,Y,Y,Y,Y,Y,,Y,Y,Y,Y,Y,Y,Y,Y,,,,Y,Y,,Y,Y,Y,Y,Y,,Y,Y,Y,Y,Y,Y,Y,Y,Y,Y,Y,Y,Y,C,S,S,"1",0.020333720562854,-97.3815664731883,25.9585828480826,-97.4,25.95
"175",Bruges,Belgium,Western-Europe,51.2450409297701,3.21340088422202,31290.000000,31240.000000,BRUGES,BE,51.233333,3.216667,51.000000,14.000000,N,3.000000,13.000000,E,"192","37248",V,LC,E,Y,N,N,Y,Y,L,,N,,0.000000,M,,Y,Y,N,Y,Y,,,Y,,,,Y,,Y,Y,Y,,,Y,Y,,,,,Y,Y,,Y,Y,,Y,Y,,,Y,,,,,,,Y,Y,Y,Y,Y,C,,S,"1",0.01215455261628,3.21340088422202,51.2450409297701,3.21666666666667,51.2333333333333
"176",Brunsbuttel Elbahafen,Germany,Western-Europe,53.9036748822077,9.18543232742668,30710.000000,30650.000000,BRUNSBUTTEL ELBAHAFEN,DE,53.883333,9.166667,53.000000,53.000000,N,9.000000,10.000000,E,"192","37228",V,RN,F,N,N,N,N,N,H,J,H,G,5.000000,L,,Y,Y,N,Y,Y,Y,,Y,,Y,Y,Y,,,,Y,,,Y,Y,,,,,Y,Y,,Y,Y,Y,,,,Y,Y,Y,N,N,,,Y,Y,Y,Y,,,,,S,"1",0.0276754157036133,9.18543232742668,53.9036748822077,9.16666666666667,53.8833333333333
"177",Brunswick,U.S.A.,North-America,31.1318521684773,-81.5196788564649,8550.000000,6585.000000,BRUNSWICK,US,31.150000,-81.500000,31.000000,9.000000,N,81.000000,30.000000,W,CP04,"11506",S,RN,G,Y,N,N,Y,Y,K,L,L,L,8.000000,L,Y,Y,Y,N,Y,Y,,,,,Y,Y,Y,,Y,Y,Y,Y,Y,Y,Y,,,,,Y,Y,,N,Y,Y,,,Y,,,Y,Y,,,,Y,Y,Y,Y,Y,Y,C,,M,"1",0.026769407553043,-81.5196788564649,31.1318521684773,-81.5,31.15
"178",Buchanan,Liberia,Africa,5.86564436709374,-10.0440980077982,45950.000000,45920.000000,BUCHANAN,LR,5.866667,-10.066667,5.000000,52.000000,N,10.000000,4.000000,W,"143","51642",V,CB,F,N,N,N,Y,,H,C,K,K,1.000000,L,Y,Y,Y,N,Y,Y,,,Y,,Y,Y,,,Y,,Y,Y,Y,Y,Y,,,,,Y,,,N,Y,Y,,Y,,,Y,Y,Y,,,,N,Y,N,N,N,N,,,S,"1",0.0225918007148411,-10.0440980077982,5.86564436709374,-10.0666666666667,5.86666666666667
"179",Buco,Philippines,Asia,8.5174927667304,124.752946978539,59720.000000,57960.000000,BUGO,PH,8.516667,124.750000,8.000000,31.000000,N,124.000000,45.000000,E,"162","92290",V,CN,G,,,,,,A,A,K,L,3.000000,M,Y,,Y,,,Y,,,,,,Y,,,,Y,Y,,,,Y,,,,,Y,,,N,,,,,,,,Y,,,,,Y,Y,,,,,C,,,"1",0.00306057573440917,124.752946978539,8.5174927667304,124.75,8.51666666666667
"180",Buenaventura,Colombia,Latin-America,3.89438856560371,-77.0664961346716,15370.000000,15350.000000,BUENAVENTURA,CO,3.883333,-77.066667,3.000000,53.000000,N,77.000000,4.000000,W,"125","22052",S,CN,F,Y,N,N,Y,Y,L,N,K,L,4.000000,L,Y,,,N,Y,Y,Y,,Y,,Y,N,,Y,,Y,Y,Y,Y,Y,Y,,,,,Y,,,Y,Y,Y,Y,Y,Y,Y,Y,Y,Y,Y,Y,Y,Y,Y,Y,,Y,Y,A,,S,"1",0.0110565474590096,-77.0664961346716,3.89438856560371,-77.0666666666667,3.88333333333333
"181",Buenos Aires,Argentina,Latin-America,-34.6197501524021,-58.3523717126609,13760.000000,13310.000000,BUENOS AIRES,AR,-34.600000,-58.366667,34.000000,36.000000,S,58.000000,22.000000,W,"124","24053",L,CB,E,Y,N,N,Y,Y,M,M,L,K,1.000000,L,N,Y,Y,Y,Y,Y,,,Y,Y,Y,Y,Y,Y,Y,Y,Y,Y,Y,Y,Y,Y,Y,,,Y,Y,,Y,Y,Y,Y,Y,Y,Y,Y,Y,Y,Y,Y,Y,Y,Y,Y,Y,Y,Y,A,L,L,"1",0.0243806117628877,-58.3523717126609,-34.6197501524021,-58.3666666666667,-34.6
"182",Buffington,U.S.A.,North-America,41.6411166914084,-87.4101148388563,4770.000000,4570.000000,BUFFINGTON,US,41.633333,-87.416667,41.000000,38.000000,N,87.000000,25.000000,W,CP06,"14929",M,CB,F,N,N,Y,Y,Y,L,L,L,,0.000000,L,,Y,,,,Y,,,,,,,,,Y,,,,,,Y,,,,,Y,,,N,,,,,,,,,,,,,,,,,,,,,,"1",0.0101738444346999,-87.4101148388563,41.6411166914084,-87.4166666666667,41.6333333333333
"183",Buka,Papua New Guinea,Oceania,-5.43220441443399,154.67173258093,56945.000000,56695.000000,QUEEN CAROLA HARBOR,PG,-5.166667,154.550000,5.000000,10.000000,S,154.000000,33.000000,E,"126","82244",V,CN,G,N,N,N,Y,,E,J,P,,2.000000,M,Y,Y,Y,N,Y,Y,Y,N,Y,Y,Y,,,Y,N,,Y,,Y,,Y,Y,,,,Y,,,N,,Y,,,,,Y,Y,,,,,Y,N,,Y,,,C,,,"1",0.29211148000243,154.67173258093,-5.43220441443399,154.55,-5.16666666666667
"184",Bukhta Vanino,Russia,Eastern-Europe,49.0901968082985,140.300631210434,60800.000000,60530.000000,BUKHTA VANINO,RU,49.083333,140.283333,49.000000,5.000000,N,140.000000,17.000000,E,"155","96140",V,CN,F,,,,Y,,D,F,J,K,2.000000,M,,,Y,N,Y,Y,Y,,,,Y,Y,Y,Y,,,Y,,Y,Y,Y,,,,,Y,Y,,Y,Y,Y,,,Y,Y,Y,Y,,,,,,Y,Y,,,,C,,,"1",0.0186097780961215,140.300631210434,49.0901968082985,140.283333333333,49.0833333333333
"185",Bukhta nagayeva (Nagadan),Russia,Eastern-Europe,59.5637963922471,150.726544395962,62550.000000,62530.000000,BUKHTA NAGAYEVA (MAGADAN),RU,59.566667,150.716667,59.000000,34.000000,N,150.000000,43.000000,E,"155","96441",S,CN,E,,,Y,Y,,E,E,J,L,3.000000,,,,,,Y,Y,Y,,Y,,,,Y,,Y,,Y,,Y,Y,Y,,,,,Y,,,,,Y,Y,,,,Y,,,,,,,Y,Y,Y,,,B,,M,"1",0.0102863021189249,150.726544395962,59.5637963922471,150.716666666667,59.5666666666667
"186",Bullen Baai,Curacao,Caribbean,12.1894172120367,-69.0205794802523,11820.000000,11785.000000,BULLEN BAAI,CW,12.183333,-69.033333,12.000000,11.000000,N,69.000000,2.000000,W,"148","24462",M,OR,P,N,Y,N,Y,N,B,,,A,1.000000,L,,Y,Y,Y,Y,Y,Y,,Y,,Y,,,Y,,,Y,,Y,,Y,,,,,Y,,,Y,,,,,,,,Y,,,,,Y,Y,Y,Y,,,C,,M,"1",0.0141306174136531,-69.0205794802523,12.1894172120367,-69.0333333333333,12.1833333333333
"187",Bunbury,Australia,Australia,-33.3223000455316,115.664537472067,54500.000000,53290.000000,BUNBURY,AU,-33.316667,115.633333,33.000000,19.000000,S,115.000000,38.000000,E,"175","74589",S,CB,E,N,N,N,Y,Y,H,G,J,,1.000000,M,,,Y,N,Y,Y,Y,,,,Y,Y,Y,,Y,,Y,,Y,Y,Y,,,,,Y,Y,,Y,,Y,,,Y,,,Y,Y,,,,Y,Y,Y,,Y,Y,C,,S,"1",0.0317085671628121,115.664537472067,-33.3223000455316,115.633333333333,-33.3166666666667
"188",Bur Safago,Egypt,Africa,26.7255555149828,33.9422311037793,47980.000000,47950.000000,BUR SAFAGA,EG,26.733333,33.950000,26.000000,44.000000,N,33.000000,57.000000,E,"172","62177",S,CB,G,,Y,,Y,,F,A,J,,1.000000,L,Y,,,,Y,Y,,,Y,,Y,Y,Y,,Y,Y,Y,,,Y,,Y,Y,,,Y,Y,,,Y,,,,,,Y,Y,Y,,,,N,Y,Y,N,N,N,,S,M,"1",0.0109931891087698,33.9422311037793,26.7255555149828,33.95,26.7333333333333
"189",Bur Said (Port Said),Egypt,Africa,31.2495862924832,32.3077194224328,45140.000000,45120.000000,BUR SAID (PORT SAID),EG,31.266667,32.300000,31.000000,16.000000,N,32.000000,18.000000,E,"132","56081",L,LC,E,Y,Y,N,Y,,G,E,H,,0.000000,M,Y,Y,Y,N,Y,Y,,,Y,,Y,Y,Y,,,,Y,Y,Y,Y,Y,Y,,,,Y,Y,,N,Y,Y,Y,Y,Y,Y,Y,Y,Y,,,,Y,Y,Y,Y,Y,Y,A,L,M,"1",0.0187437633613043,32.3077194224328,31.2495862924832,32.3,31.2666666666667
"190",Burgas,Bulgaria,Eastern-Europe,42.4694848143992,27.4822662757088,43500.000000,43460.000000,BURGAS,BG,42.483333,27.483333,42.000000,29.000000,N,27.000000,29.000000,E,BA24,55110/63,S,CB,F,N,N,N,Y,N,E,J,M,M,0.000000,M,Y,Y,Y,N,Y,Y,Y,,Y,,Y,,Y,Y,,,Y,,Y,Y,Y,Y,,,,Y,Y,,Y,Y,Y,Y,Y,Y,Y,Y,,,,,,Y,Y,Y,Y,,,C,M,L,"1",0.0138895676190625,27.4822662757088,42.4694848143992,27.4833333333333,42.4833333333333
"191",Burnie,Australia,Australia,-41.0533892877031,145.91063784867,54880.000000,54700.000000,BURNIE,AU,-41.050000,145.950000,41.000000,3.000000,S,145.000000,57.000000,E,"127","75169",S,CB,E,N,Y,N,N,,K,A,J,J,2.000000,M,,Y,Y,N,Y,Y,Y,,Y,,Y,Y,Y,,Y,N,Y,Y,Y,Y,Y,,,,,Y,Y,,Y,Y,,,,Y,,,Y,Y,N,Y,Y,,Y,Y,,Y,Y,C,,M,"1",0.0395077995898795,145.91063784867,-41.0533892877031,145.95,-41.05
"192",Burns Harbor,U.S.A.,North-America,41.632564478401,-87.1412702411927,4760.000000,4570.000000,GARY,US,41.616667,-87.333333,41.000000,37.000000,N,87.000000,20.000000,W,CP06,"14926",M,CB,G,N,N,Y,Y,Y,L,L,L,,0.000000,L,Y,Y,N,N,N,Y,,,,,Y,Y,Y,,Y,,Y,Y,Y,Y,Y,,,,,Y,,,N,,,,,,,,,Y,,,,Y,Y,Y,Y,Y,Y,C,,S,"1",0.192719930937527,-87.1412702411927,41.632564478401,-87.3333333333333,41.6166666666667
"193",Bushehr,Iran,Middle-East,28.9915374731841,50.8346726343452,48470.000000,48410.000000,BUSHEHR,IR,28.983333,50.833333,28.000000,59.000000,N,50.000000,50.000000,E,"172","62428",M,CN,F,Y,N,N,Y,Y,M,H,L,M,1.000000,M,,Y,N,N,Y,Y,Y,,,,Y,Y,Y,,Y,,Y,Y,Y,,Y,,,,,Y,Y,,N,,Y,Y,Y,Y,Y,Y,,,,,,,Y,Y,Y,,,C,,,"1",0.00831273949375696,50.8346726343452,28.9915374731841,50.8333333333333,28.9833333333333
"194",Butinge Oil Terminal,Lithuania,Eastern-Europe,56.059828848668,21.1065767123163,28654.000000,28650.000000,BUTINGE OIL TERMINAL,LT,56.033333,20.950000,56.000000,2.000000,N,20.000000,57.000000,E,"194","44430",V,OR,P,,,Y,Y,N,C,C,,J,1.000000,L,,,,,Y,,,,,,Y,,,,,,,,,,,,Y,,,Y,N,,N,,,,,,,,Y,,,,,,N,N,,,,,,,"1",0.158802642209205,21.1065767123163,56.059828848668,20.95,56.0333333333333
"195",Cabanas,Cuba,Caribbean,22.6723173680065,-83.9675720954907,10080.000000,10030.000000,CABANAS,CU,23.000000,-82.966667,23.000000,0.000000,N,82.000000,58.000000,W,"147","27102",M,CN,F,N,N,N,Y,N,M,N,M,,1.000000,M,Y,Y,N,N,Y,Y,Y,,N,,Y,Y,,,,,Y,,,Y,Y,Y,,,,Y,,,N,,,,,,,,Y,,,,,Y,N,N,N,N,N,N,,,"1",1.05317974950131,-83.9675720954907,22.6723173680065,-82.9666666666667,23
"196",Cabedelo,Brazil,Latin-America,-6.96939787741202,-34.8395475305564,12710.000000,12700.000000,CABEDELO,BR,-6.966667,-34.833333,6.000000,58.000000,S,34.000000,50.000000,W,"124","24231",S,RN,F,N,N,N,Y,,O,N,J,N,2.000000,L,,,Y,N,Y,Y,Y,,,N,Y,Y,,,Y,,Y,,Y,Y,Y,,,,,Y,,,N,Y,Y,,N,N,N,Y,Y,N,N,N,N,,Y,Y,,,,C,,M,"1",0.00678791273235454,-34.8395475305564,-6.96939787741202,-34.8333333333333,-6.96666666666667
"197",Cadiz,Spain,Western-Europe,36.5204101947718,-6.26375864927931,38290.000000,38200.000000,CADIZ,ES,36.533333,-6.300000,36.000000,32.000000,N,6.000000,18.000000,W,"143","51165",M,CB,G,N,N,N,Y,Y,H,G,G,,4.000000,M,Y,Y,Y,Y,Y,Y,Y,,Y,,Y,Y,,,,,Y,,Y,Y,Y,,,,,Y,Y,,Y,Y,Y,,,Y,Y,Y,Y,Y,Y,Y,Y,Y,Y,Y,Y,Y,Y,A,L,S,"1",0.0384765254712561,-6.26375864927931,36.5204101947718,-6.3,36.5333333333333
"198",Cagatan De Oro,Philippines,Asia,8.48679408262968,124.708301272858,59710.000000,57960.000000,CAGAYAN DE ORO,PH,8.500000,124.666667,8.000000,30.000000,N,124.000000,40.000000,E,"162","92293",M,CN,G,Y,Y,,Y,,A,A,J,N,2.000000,M,Y,,Y,N,Y,Y,Y,,Y,,Y,Y,,,Y,Y,Y,,Y,,Y,,Y,,,Y,Y,,Y,Y,Y,,,Y,Y,Y,Y,,,,,Y,Y,Y,N,,,C,S,,"1",0.0436787898907163,124.708301272858,8.48679408262968,124.666666666667,8.5
"199",Cagliari,Italy,Mediterranean,39.23143382756,9.08468701930715,39210.000000,39130.000000,CAGLIARI,IT,39.216667,9.116667,39.000000,13.000000,N,9.000000,7.000000,E,"131","53262",S,CB,G,N,N,N,Y,,G,H,L,,1.000000,L,Y,Y,,Y,Y,Y,Y,,Y,,Y,Y,Y,,,,Y,Y,Y,Y,Y,Y,,,,Y,Y,,Y,Y,Y,,,,Y,Y,Y,,,,,Y,Y,Y,Y,Y,Y,C,,S,"1",0.0352245210909921,9.08468701930715,39.23143382756,9.11666666666667,39.2166666666667
"200",Cairns,Australia,Australia,-16.9412156820602,145.773199489482,53340.000000,53290.000000,CAIRNS,AU,-16.916667,145.783333,16.000000,55.000000,S,145.000000,47.000000,E,"127",74252/6,S,RN,G,N,N,N,Y,Y,L,J,K,K,2.000000,M,,Y,,N,Y,Y,Y,,Y,N,Y,Y,,,Y,,Y,,Y,Y,Y,,,,,Y,Y,,Y,Y,Y,,,,Y,Y,Y,Y,N,Y,Y,,Y,Y,,Y,Y,B,S,S,"1",0.0265584063527483,145.773199489482,-16.9412156820602,145.783333333333,-16.9166666666667
"201",Calabar,Nigeria,Africa,5.00788292427145,8.3251391691552,46230.000000,46120.000000,CALABAR,NG,4.966667,8.316667,4.000000,58.000000,N,8.000000,19.000000,E,"123","57164",V,RN,E,Y,N,N,Y,,L,B,L,L,2.000000,L,Y,,,,Y,Y,Y,,,,Y,,,,Y,Y,Y,Y,Y,,Y,Y,,,,Y,Y,,N,Y,Y,,,,Y,Y,Y,Y,,,,N,Y,Y,N,Y,Y,C,S,,"1",0.0420780606654126,8.3251391691552,5.00788292427145,8.31666666666667,4.96666666666667
"202",Calais,France,Western-Europe,50.9679970348964,1.87608366209611,35750.000000,35720.000000,CALAIS,FR,50.966667,1.850000,50.000000,58.000000,N,1.000000,51.000000,E,"191","37126",S,CB,G,Y,N,N,Y,Y,L,D,J,,6.000000,M,Y,,Y,N,Y,Y,Y,,Y,,Y,Y,Y,Y,Y,Y,Y,,Y,Y,Y,,,,,Y,Y,,Y,Y,Y,,,,Y,Y,Y,,,,,Y,Y,Y,Y,Y,Y,A,S,S,"1",0.026117567037737,1.87608366209611,50.9679970348964,1.85,50.9666666666667
"203",Calcutta,India,Asia,22.5357440126357,88.2995811096077,49560.000000,49310.000000,CALCUTTA,IN,22.550000,88.333333,22.000000,33.000000,N,88.000000,20.000000,E,"173","63323",L,RN,G,Y,N,N,Y,Y,L,K,L,L,2.000000,M,Y,Y,Y,Y,Y,Y,Y,,Y,Y,Y,Y,,,Y,Y,Y,,Y,Y,Y,Y,,,,Y,,,N,Y,Y,Y,Y,Y,Y,Y,Y,Y,,Y,Y,,Y,Y,,Y,Y,B,M,L,"1",0.0366394020441777,88.2995811096077,22.5357440126357,88.3333333333333,22.55
"204",Caleta Patillos,Chile,Latin-America,-20.7865405111217,-70.1949341075136,14671.000000,14070.000000,CALETA PATILLOS,CL,-20.733333,-70.200000,20.000000,44.000000,S,70.000000,12.000000,W,"125","22205",V,CN,F,,Y,,Y,Y,,B,J,,0.000000,L,Y,,,,Y,Y,,,,,,Y,,Y,Y,,Y,,,,Y,,,,,,N,,,,,,,,,,,,,,,N,,N,,,,,,,"1",0.0534477972875206,-70.1949341075136,-20.7865405111217,-70.2,-20.7333333333333
"205",Calumet Harbor,U.S.A.,North-America,41.6827014793429,-87.5585275784706,4790.000000,4570.000000,CALUMET HARBOR,US,41.733333,-87.516667,41.000000,44.000000,N,87.000000,31.000000,W,CP06,"14929",M,CB,E,N,N,Y,Y,Y,L,L,M,L,0.000000,L,Y,Y,Y,N,Y,Y,,,,,Y,Y,Y,,Y,Y,Y,Y,Y,Y,Y,,,,,Y,,,N,,,,,,Y,Y,,Y,,,,Y,Y,Y,Y,Y,Y,A,L,,"1",0.0656956663377452,-87.5585275784706,41.6827014793429,-87.5166666666667,41.7333333333333
"206",Campana,Argentina,Latin-America,-34.1594251066149,-58.9480311739706,13710.000000,13310.000000,CAMPANA,AR,-34.150000,-58.966667,34.000000,9.000000,S,58.000000,58.000000,W,"124","24052",S,RN,G,Y,N,N,Y,,O,J,L,K,0.000000,L,Y,Y,,N,Y,Y,,,,Y,Y,Y,Y,Y,Y,Y,Y,Y,,Y,Y,,,,,Y,N,,N,Y,Y,,,,,Y,Y,,,,,Y,Y,Y,Y,,,C,,,"1",0.0208833479769737,-58.9480311739706,-34.1594251066149,-58.9666666666667,-34.15
"207",Canaport (St. John),Canada,North-America,45.2133863789418,-65.9853304291903,6545.000000,6070.000000,CANAPORT (ST. JOHN),CA,45.200000,-65.983333,45.000000,12.000000,N,65.000000,59.000000,W,"145","14044",L,OR,G,,,,,,A,,,A,0.000000,L,Y,Y,,,Y,Y,,,,,Y,,,,,Y,Y,,,,Y,,,,,N,,,,,,,,,,,,,,,,,Y,Y,,,,,,,"1",0.0135345311347109,-65.9853304291903,45.2133863789418,-65.9833333333333,45.2
"208",Canaveral Harbor,U.S.A.,North-America,28.4109783508608,-80.6159493470087,8595.000000,6585.000000,CANAVERAL HARBOR,US,28.700000,-80.616667,28.000000,42.000000,N,80.000000,37.000000,W,CP04,"11478",V,CN,E,Y,N,N,Y,,H,H,H,J,4.000000,L,Y,Y,Y,N,Y,Y,,,,,Y,Y,Y,,Y,,,Y,Y,Y,Y,,,,,Y,Y,,N,,,,,,,,Y,,,,,Y,Y,Y,Y,N,N,N,,,"1",0.289022539291701,-80.6159493470087,28.4109783508608,-80.6166666666667,28.7
"209",Cang Doosan Vina,Vietnam,Asia,15.404665009911,108.801865324123,57650.000000,57510.000000,DA NANG,VN,16.100000,108.216667,16.000000,6.000000,N,108.000000,13.000000,E,"161","93512",S,RN,F,Y,Y,N,N,Y,H,F,J,H,1.000000,M,Y,Y,Y,N,Y,Y,,,,N,Y,Y,Y,Y,Y,Y,Y,Y,Y,Y,Y,,,,,Y,Y,,Y,,Y,,,Y,Y,Y,Y,N,N,Y,Y,,Y,Y,Y,,,C,,S,"1",0.908816932682968,108.801865324123,15.404665009911,108.216666666667,16.1
"210",Cap Haitien,Haiti,Caribbean,19.7595441766643,-72.195695069751,10930.000000,10810.000000,CAP HAITIEN,HT,19.766667,-72.200000,19.000000,46.000000,N,72.000000,12.000000,W,"147","26147",V,OR,F,N,N,N,N,Y,E,G,K,,1.000000,L,N,Y,Y,Y,Y,Y,Y,,,N,Y,Y,,,,,Y,N,Y,,Y,Y,,,,Y,,,N,Y,,,,,Y,,Y,,,,,,Y,Y,,,,N,,,"1",0.00832239678712252,-72.195695069751,19.7595441766643,-72.2,19.7666666666667
"211",Cape Town,South Africa,Africa,-33.9154319689336,18.4482289020695,46770.000000,46725.000000,CAPE TOWN,ZA,-33.916667,18.416667,33.000000,55.000000,S,18.000000,25.000000,E,"123","57484",L,CB,G,Y,N,N,Y,Y,F,A,H,H,1.000000,L,Y,Y,Y,Y,Y,Y,Y,,Y,Y,Y,Y,Y,Y,Y,Y,Y,Y,Y,Y,Y,Y,,,,Y,Y,,N,Y,Y,Y,Y,Y,,Y,Y,Y,Y,Y,Y,Y,Y,Y,Y,Y,Y,A,L,L,"1",0.0315863765271864,18.4482289020695,-33.9154319689336,18.4166666666667,-33.9166666666667
"212",Caracasbaai,Curacao,Caribbean,12.0725878529287,-68.8618796809089,11800.000000,11785.000000,CARACASBAAI,CW,12.066667,-68.866667,12.000000,4.000000,N,68.000000,52.000000,W,"148","24464",S,OR,P,N,N,N,Y,N,G,,H,H,1.000000,L,N,Y,Y,Y,Y,Y,Y,Y,Y,,Y,Y,Y,,,,Y,Y,Y,,Y,Y,,,,Y,Y,,N,Y,,,,,,,Y,Y,,,Y,Y,Y,N,N,Y,Y,C,,,"1",0.00761417621246423,-68.8618796809089,12.0725878529287,-68.8666666666667,12.0666666666667
"213",Cardiff,United Kingdom,Western-Europe,51.4642897471773,-3.15412989411216,35010.000000,34710.000000,CARDIFF,GB,51.450000,-3.166667,51.000000,27.000000,N,3.000000,10.000000,W,"142","36041",M,CT,E,Y,Y,N,Y,Y,Q,K,J,L,11.000000,M,Y,Y,Y,Y,Y,Y,Y,,Y,,Y,,Y,Y,Y,Y,Y,,Y,Y,Y,,,,,Y,Y,,Y,Y,Y,Y,,,Y,Y,Y,Y,,Y,Y,,Y,Y,Y,Y,Y,A,,S,"1",0.0190096696571892,-3.15412989411216,51.4642897471773,-3.16666666666667,51.45
"214",Cartagena,Colombia,Latin-America,10.3380803564312,-75.5132561959261,11905.000000,11860.000000,MAMONAL,CO,10.316667,-75.516667,10.000000,19.000000,N,75.000000,31.000000,W,"148","24508",S,OR,P,,,,,,K,J,M,M,0.000000,M,,,,,,Y,Y,,,,Y,,,Y,,Y,Y,Y,Y,Y,Y,,,,,Y,Y,,Y,,,Y,,,,Y,,,,,,,,,,,,C,,S,"1",0.0216835748898164,-75.5132561959261,10.3380803564312,-75.5166666666667,10.3166666666667
"215",Cartagena,Spain,Mediterranean,37.5754897404947,-0.945398356705371,38430.000000,38340.000000,CARTAGENA,ES,37.583333,-0.983333,37.000000,35.000000,N,0.000000,59.000000,W,"131","52062",S,CB,F,N,N,N,,,J,A,H,C,1.000000,L,Y,,Y,N,Y,Y,Y,,Y,Y,Y,,Y,,Y,Y,Y,,Y,Y,Y,Y,,,,Y,Y,,Y,Y,Y,Y,,,Y,Y,Y,,,Y,Y,Y,Y,Y,Y,Y,Y,C,S,S,"1",0.038737377303866,-0.945398356705371,37.5754897404947,-0.983333333333333,37.5833333333333
"216",Casablanca,Morocco,Africa,33.6066001042523,-7.5788503958843,45793.000000,45700.000000,CASABLANCA,MA,33.600000,-7.616667,33.000000,36.000000,N,7.000000,37.000000,W,"143","51222",L,CB,E,N,Y,,Y,,H,A,J,,4.000000,L,Y,Y,Y,Y,Y,Y,Y,,Y,,Y,Y,Y,,Y,,Y,Y,Y,Y,Y,,Y,,,Y,Y,,N,Y,Y,,,Y,Y,Y,Y,Y,Y,Y,Y,Y,Y,Y,Y,Y,Y,C,,L,"1",0.038387911014104,-7.5788503958843,33.6066001042523,-7.61666666666667,33.6
"217",Castries,Saint Lucia,Caribbean,13.9944411065018,-61.009273722589,11625.000000,11615.000000,GRAND CUL DE SAC BAY,LC,13.983333,-61.016667,13.000000,59.000000,N,61.000000,1.000000,W,"147","25528",S,CN,G,N,N,N,Y,N,A,,J,A,0.000000,L,,Y,,,Y,Y,Y,Y,Y,,Y,Y,,,,,Y,,,,Y,Y,,,,Y,N,,N,,,,,,,,,,,,,Y,N,N,N,,,N,,,"1",0.0133430973502031,-61.009273722589,13.9944411065018,-61.0166666666667,13.9833333333333
"218",Catania,Italy,Mediterranean,37.4946280844568,15.0924823943465,40270.000000,40090.000000,CATANIA,IT,37.500000,15.100000,37.000000,30.000000,N,15.000000,6.000000,E,"131","53184",S,CB,F,N,Y,N,Y,,J,A,K,L,0.000000,M,Y,,,N,Y,Y,Y,Y,Y,,Y,Y,Y,,Y,,Y,,Y,Y,Y,Y,,,,Y,Y,,Y,Y,Y,,,Y,Y,,Y,N,,,,,Y,Y,Y,,,C,S,M,"1",0.0092396900037048,15.0924823943465,37.4946280844568,15.1,37.5
"219",Cayo Moa Grande,Cuba,Caribbean,20.6524712766983,-74.9089268863487,10280.000000,10030.000000,CAYO MOA GRANDE,CU,20.666667,-74.900000,20.000000,40.000000,N,74.000000,54.000000,W,"147",26240/45,S,CB,P,N,N,N,Y,N,J,G,J,,1.000000,L,,,,N,Y,Y,,,Y,,,Y,,Y,,,Y,,Y,,Y,Y,Y,,,,,,,,,,,,,,,,,,,,Y,,,,,C,,,"1",0.0167689712336909,-74.9089268863487,20.6524712766983,-74.9,20.6666666666667
"220",Cebu,Philippines,Asia,10.3141303177528,123.936953417075,58960.000000,57960.000000,CEBU,PH,10.300000,123.900000,10.000000,18.000000,N,123.000000,54.000000,E,"162",92385/3,L,CB,E,,,N,Y,Y,K,G,K,M,2.000000,M,Y,,Y,Y,Y,Y,Y,,,,Y,,,Y,,,Y,,Y,,Y,Y,,,,Y,Y,,Y,Y,Y,,,,Y,,Y,Y,N,Y,Y,,Y,Y,,Y,Y,B,M,,"1",0.0395628729152704,123.936953417075,10.3141303177528,123.9,10.3
"221",Chaguaramas,Trinidad and Tobago,Caribbean,10.6808528077931,-61.6403757524435,11710.000000,11705.000000,CHAGUARAMAS,TT,10.683333,-61.650000,10.000000,41.000000,N,61.000000,39.000000,W,"148","24406",V,CN,G,N,Y,N,Y,N,,A,K,N,1.000000,L,Y,Y,Y,Y,Y,Y,Y,,Y,N,N,Y,,Y,,,Y,,Y,Y,Y,,,,,Y,,,N,,Y,,Y,Y,Y,,Y,Y,Y,Y,Y,,Y,Y,,Y,Y,A,M,,"1",0.00993876994321753,-61.6403757524435,10.6808528077931,-61.65,10.6833333333333
"222",Chan Bahar,Iran,Middle-East,25.2960397983633,60.6110798324922,48550.000000,48410.000000,CHAH BAHAR,IR,25.266667,60.616667,25.000000,16.000000,N,60.000000,37.000000,E,"172","62377",V,CN,F,,,,,,N,K,L,,2.000000,M,,,Y,N,Y,Y,,Y,,,Y,Y,Y,,Y,Y,Y,Y,,,,Y,,,,Y,Y,,N,,Y,,,,Y,Y,,,,,,Y,Y,Y,Y,,,B,,,"1",0.0298997254462788,60.6110798324922,25.2960397983633,60.6166666666667,25.2666666666667
"223",Changshu,China,Asia,31.7577804090431,120.964272866214,59974.000000,59850.000000,CHANGSHU,CN,31.766667,120.950000,31.000000,46.000000,N,120.000000,57.000000,E,"157",UK 1619,S,OR,F,,,,,,M,H,M,L,3.000000,M,,,,,Y,Y,Y,,,,Y,Y,,Y,,,Y,,,,Y,,,,,,,,,,Y,Y,Y,Y,Y,Y,,,,,,,Y,Y,,,,,,,"1",0.0168130985990738,120.964272866214,31.7577804090431,120.95,31.7666666666667
"224",Changzhou,China,Asia,31.9742313005743,119.998275389875,59986.000000,59850.000000,CHANGZHOU,CN,31.966667,119.983333,31.000000,58.000000,N,119.000000,59.000000,E,"157",UK 1641,S,OR,P,,,,Y,Y,K,N,J,,2.000000,M,,,,,,Y,Y,,,,Y,,,Y,,,Y,,,,Y,,,,,,,,,Y,Y,,,,Y,Y,,,,,,,Y,Y,,,,C,,,"1",0.016747798060051,119.998275389875,31.9742313005743,119.983333333333,31.9666666666667
"225",Chaozhou,China,Asia,23.5680727346095,117.10933315427,57862.000000,57855.000000,CHAOZHOU,CN,23.616667,117.083333,23.000000,37.000000,N,117.000000,5.000000,E,"157","94040",M,CN,F,,,,N,N,,H,,,2.000000,M,,,,,,Y,Y,,,,,,,,,,Y,,,,Y,,,,,,,,,Y,Y,,,,Y,,,,,,,,,,Y,,,,,,"1",0.0551122574527302,117.10933315427,23.5680727346095,117.083333333333,23.6166666666667
"226",Charco Azul,Panama,Latin-America,8.20636789441012,-82.8782445303575,15427.000000,15380.000000,CHARCO AZUL,PA,8.216667,-82.866667,8.000000,13.000000,N,82.000000,52.000000,W,"153","21581",V,OR,P,,,,Y,,,A,,A,2.000000,L,Y,,,,Y,Y,,,,,Y,Y,,Y,,,Y,,,Y,,,,,,,N,,,,,,,,,,Y,,,,,,Y,N,N,,,C,,S,"1",0.0154955360551153,-82.8782445303575,8.20636789441012,-82.8666666666667,8.21666666666667
"227",Charleston,U.S.A.,North-America,32.8992961977948,-79.9211579877171,8500.000000,6585.000000,CHARLESTON,US,32.783333,-79.916667,32.000000,47.000000,N,79.000000,55.000000,W,CP04,"11524",S,RN,G,N,N,N,Y,Y,H,H,J,H,5.000000,L,Y,Y,Y,N,Y,Y,,,Y,Y,Y,Y,Y,,Y,Y,Y,Y,Y,Y,Y,,,,,Y,Y,Y,N,Y,Y,Y,,Y,,Y,Y,Y,,Y,Y,Y,Y,Y,Y,Y,Y,A,S,,"1",0.116049807836506,-79.9211579877171,32.8992961977948,-79.9166666666667,32.7833333333333
"228",Charlestown,Saint Kitts and Nevis,Caribbean,17.1097949063751,-62.6229819043662,11410.000000,11392.000000,CHARLESTOWN,KN,17.133333,-62.633333,17.000000,8.000000,N,62.000000,38.000000,W,"147","25601",V,OR,F,N,Y,N,Y,N,H,L,L,O,1.000000,,,Y,Y,N,N,,,,,,,Y,,,Y,,Y,,Y,,,Y,,,,Y,Y,,N,,,,,,,Y,Y,,,,,,Y,Y,,,,,,,"1",0.0257139966813466,-62.6229819043662,17.1097949063751,-62.6333333333333,17.1333333333333
"229",Charlotte Amalie,U.S. Virgin Islands,Caribbean,18.3338495263122,-64.9384048131225,11310.000000,11305.000000,CHARLOTTE AMALIE,VI,18.350000,-64.933333,18.000000,21.000000,N,64.000000,56.000000,W,CP05,"25649",S,OR,G,N,N,N,N,Y,K,N,L,O,0.000000,L,Y,Y,Y,,Y,Y,Y,,,,Y,Y,Y,Y,,,Y,,Y,,Y,Y,,,,Y,Y,,N,Y,Y,,,Y,Y,Y,Y,Y,N,N,,Y,Y,Y,Y,Y,Y,C,S,M,"1",0.01692801546525,-64.9384048131225,18.3338495263122,-64.9333333333333,18.35
"230",Chatnam Docks,United Kingdom,Western-Europe,51.4009573032768,0.546949485688587,31390.000000,31330.000000,CHATHAM DOCKS,GB,51.400000,0.550000,51.000000,24.000000,N,0.000000,33.000000,E,"192","37031",S,RB,G,Y,Y,N,Y,Y,P,G,L,,4.000000,M,,,Y,N,Y,Y,Y,,Y,Y,Y,,Y,Y,Y,,Y,,,Y,,,,,,Y,,,Y,Y,Y,,,,Y,Y,Y,,,,,,Y,,,,,C,L,S,"1",0.00319719676089108,0.546949485688587,51.4009573032768,0.55,51.4
"231",Chennai (Madras),India,Asia,13.1004672412478,80.2942507382557,49450.000000,49310.000000,CHENNAI (MADRAS),IN,13.100000,80.300000,13.000000,6.000000,N,80.000000,18.000000,E,"173",63271/0,L,CB,G,Y,Y,N,Y,Y,D,F,H,F,1.000000,M,Y,Y,Y,Y,Y,Y,Y,,Y,,Y,Y,,,,,Y,,Y,Y,Y,Y,Y,,,Y,Y,,Y,Y,Y,Y,Y,,Y,Y,Y,Y,,,Y,Y,Y,Y,Y,Y,Y,A,M,M,"1",0.00576821679447461,80.2942507382557,13.1004672412478,80.3,13.1
"232",Cherry Point,Canada,North-America,48.8525200495676,-122.713935406009,18055.000000,16000.000000,CHERRY POINT,US,48.866667,-122.750000,48.000000,52.000000,N,122.000000,45.000000,W,CP07,"18431",V,CN,F,N,N,N,,,A,A,,D,5.000000,L,,,,,,Y,,,,,Y,Y,,,,,,,,,Y,,,,,Y,,,,,,,,,,,,Y,,,,Y,Y,Y,,Y,Y,C,,,"1",0.0387399240461822,-122.713935406009,48.8525200495676,-122.75,48.8666666666667
"233",Chester,U.S.A.,North-America,39.8528821986278,-75.340919235933,8080.000000,6585.000000,CHESTER,US,39.850000,-75.350000,39.000000,51.000000,N,75.000000,21.000000,W,CP03,"12312",L,RN,G,N,N,N,Y,Y,J,J,K,,6.000000,L,,,Y,N,,Y,,,,,,Y,,,Y,,,Y,Y,Y,Y,,,,,Y,Y,,N,Y,,,,Y,,Y,,Y,,,,Y,Y,Y,Y,Y,Y,A,M,,"1",0.00952718977295119,-75.340919235933,39.8528821986278,-75.35,39.85
"234",Chi-Lung,Taiwan,Asia,25.1471799390682,121.752005866838,57890.000000,57880.000000,CHI-LUNG,TW,25.133333,121.766667,25.000000,8.000000,N,121.000000,46.000000,E,"157","94124",L,CB,G,N,Y,N,,,F,H,J,L,1.000000,M,Y,Y,Y,N,Y,Y,Y,,Y,,Y,Y,Y,Y,Y,Y,Y,,Y,Y,Y,,,,,Y,,,Y,Y,Y,Y,,Y,Y,,Y,,,,,Y,Y,Y,Y,,,A,L,M,"1",0.0201659996526466,121.752005866838,25.1471799390682,121.766666666667,25.1333333333333
"235",Chiba Ko,Japan,Asia,35.5251399161892,140.052339187873,61375.000000,61100.000000,CHIBA KO,JP,35.583333,140.066667,35.000000,35.000000,N,140.000000,4.000000,E,"158","97151",S,CB,G,N,N,N,Y,,E,A,E,D,2.000000,L,Y,,Y,N,Y,Y,Y,,Y,N,Y,Y,Y,Y,Y,Y,Y,Y,Y,Y,Y,,,,,Y,,,Y,Y,Y,Y,Y,Y,,,Y,Y,,,,Y,Y,Y,Y,,,A,L,S,"1",0.0599312143001904,140.052339187873,35.5251399161892,140.066666666667,35.5833333333333
"236",Chiriqui Grande,Panama,Latin-America,8.9542397873958,-82.1210212865131,9825.000000,9820.000000,CHIRIQUI GRANDE,PA,8.950000,-82.116667,8.000000,57.000000,N,82.000000,7.000000,W,"148","28042",V,OR,F,Y,Y,N,N,Y,L,A,J,C,1.000000,L,Y,Y,,,Y,,Y,Y,,,N,Y,,Y,,,Y,,,Y,Y,,Y,,,Y,N,,N,,,,,Y,,,N,N,N,N,N,,Y,Y,,,,N,,S,"1",0.00607770607787163,-82.1210212865131,8.9542397873958,-82.1166666666667,8.95
"237",Chittagong,Bangladesh,Asia,22.2812457991689,91.8138542663553,49590.000000,49570.000000,CHITTAGONG,BD,22.316667,91.816667,22.000000,19.000000,N,91.000000,49.000000,E,"173","63337",M,RN,G,Y,Y,N,Y,,N,L,L,L,3.000000,M,Y,Y,Y,N,Y,Y,Y,Y,Y,,Y,,Y,,Y,Y,Y,Y,Y,Y,Y,Y,Y,,,Y,N,,N,,Y,Y,Y,Y,Y,Y,,N,N,N,N,Y,Y,Y,Y,,,C,M,S,"1",0.0355323437139042,91.8138542663553,22.2812457991689,91.8166666666667,22.3166666666667
"238",Chiwan,China,Asia,19.9627373365387,110.033989685859,57818.000000,57815.000000,CHIWAN,CN,19.966667,110.033333,19.000000,58.000000,N,110.000000,2.000000,E,"157","93721",V,CB,F,Y,Y,,,,K,O,O,N,2.000000,M,,Y,,,,Y,Y,,,,Y,,,,,,Y,,,Y,,,,,,,,,,,Y,,,Y,Y,Y,Y,,,,,Y,Y,Y,Y,,,C,,S,"1",0.00398377131538577,110.033989685859,19.9627373365387,110.033333333333,19.9666666666667
"239",Christiansted,U.S. Virgin Islands,Caribbean,17.746933391467,-64.6983705035873,11340.000000,11325.000000,CHRISTIANSTED,VI,17.750000,-64.700000,17.000000,45.000000,N,64.000000,42.000000,W,CP05,"25645",V,CN,F,,,,Y,,O,P,N,,1.000000,M,,Y,Y,,Y,Y,Y,Y,Y,,Y,,,Y,,,Y,,Y,,Y,,,,,Y,Y,,N,,Y,,,,,Y,Y,,,,,,Y,Y,,Y,Y,C,,S,"1",0.00347265697325383,-64.6983705035873,17.746933391467,-64.7,17.75
"240",Cienfuegos,Cuba,Caribbean,22.176312854466,-80.4996107009966,10540.000000,10310.000000,CIENFUEGOS,CU,22.150000,-80.450000,22.000000,9.000000,N,80.000000,27.000000,W,"147","27163",L,CN,E,Y,N,N,Y,N,J,K,K,J,1.000000,L,Y,Y,Y,N,Y,Y,Y,,Y,N,Y,Y,,Y,,,Y,,Y,Y,Y,,,,,Y,,,N,Y,,Y,,Y,Y,Y,Y,,,,,,Y,Y,,N,N,C,,M,"1",0.0561568158242779,-80.4996107009966,22.176312854466,-80.45,22.15
"241",Cilacap,Indonesia,Asia,-7.71010744118732,109.038834280265,51220.000000,50920.000000,CILACAP,ID,-7.733333,109.000000,7.000000,44.000000,S,109.000000,0.000000,E,"163","71183",L,CN,E,Y,Y,N,N,,J,C,J,J,1.000000,L,Y,Y,Y,N,Y,Y,Y,,,N,Y,Y,,Y,,,Y,,Y,,Y,,,,,Y,,,N,,Y,,,,Y,Y,Y,Y,,N,N,Y,Y,Y,Y,N,,C,,,"1",0.0452497888356566,109.038834280265,-7.71010744118732,109,-7.73333333333333
"242",Cirebon,Indonesia,Asia,-6.73590950953982,108.591510432811,51010.000000,50920.000000,CIREBON,ID,-6.716667,108.566667,6.000000,43.000000,S,108.000000,34.000000,E,"163","72236",V,CB,G,Y,Y,N,Y,,P,M,P,,0.000000,M,Y,,Y,N,Y,Y,Y,,Y,,Y,Y,,Y,,,Y,Y,Y,Y,,Y,,,,Y,,,N,,Y,,,,Y,Y,Y,,,Y,,Y,Y,Y,Y,,,C,S,M,"1",0.0314245082391815,108.591510432811,-6.73590950953982,108.566666666667,-6.71666666666667
"243",Civitavecchia,Italy,Mediterranean,42.1023680590052,11.7792316769308,39810.000000,39730.000000,CIVITAVECCHIA,IT,42.100000,11.783333,42.000000,6.000000,N,11.000000,47.000000,E,"131","53111",M,CB,F,N,N,N,Y,,H,F,K,A,0.000000,M,Y,,Y,N,Y,Y,Y,Y,Y,,Y,Y,,Y,Y,,Y,Y,Y,Y,Y,,,,,Y,Y,,Y,Y,Y,Y,,,Y,Y,Y,,,,,,Y,Y,Y,Y,Y,C,,,"1",0.00473616814484574,11.7792316769308,42.1023680590052,11.7833333333333,42.1
"244",Clarkson,Canada,North-America,43.4976781994419,-79.6177548537854,3015.000000,2820.000000,CLARKSON,CA,43.500000,-79.600000,43.000000,30.000000,N,79.000000,36.000000,W,C302,CA2070,V,OR,F,N,Y,Y,Y,N,M,J,M,M,0.000000,L,N,,N,N,Y,Y,,,,Y,N,,,,,,Y,,Y,,Y,,,,,Y,,,Y,,,,,,,,,,,,,,,,,,,,,,"1",0.0179060210759905,-79.6177548537854,43.4976781994419,-79.6,43.5
"245",Cleveland,U.S.A.,North-America,41.4738188069171,-81.6751175561709,3490.000000,3400.000000,CLEVELAND,US,41.500000,-81.716667,41.000000,30.000000,N,81.000000,43.000000,W,CP06,"14839",L,CB,E,N,N,Y,Y,N,L,L,L,L,0.000000,L,Y,Y,N,,Y,Y,,,,Y,Y,Y,,Y,Y,Y,Y,Y,Y,Y,Y,,,,,Y,Y,,Y,,Y,,Y,Y,,,Y,Y,,Y,Y,Y,Y,Y,Y,Y,Y,A,M,S,"1",0.0491099119754092,-81.6751175561709,41.4738188069171,-81.7166666666667,41.5
"246",Clifton,Saint Vincent and the Grenadines,Caribbean,12.596858868134,-61.416912245193,11640.000000,11637.000000,KINGSTOWN,VC,13.150000,-61.233333,13.000000,9.000000,N,61.000000,14.000000,W,"147","25483",S,CN,F,N,Y,N,Y,N,,A,J,L,1.000000,L,Y,Y,Y,N,Y,Y,Y,,N,N,N,Y,,Y,,,Y,,Y,,Y,Y,,,,Y,Y,,N,,Y,,,,Y,,Y,Y,N,N,N,Y,Y,Y,Y,N,N,C,,,"1",0.582808998421909,-61.416912245193,12.596858868134,-61.2333333333333,13.15
"247",Clifton Pier,Bahamas,Caribbean,25.005151913156,-77.5446251267004,9995.000000,9980.000000,CLIFTON PIER,BS,25.000000,-77.550000,25.000000,0.000000,N,77.000000,33.000000,W,"147","26309",V,OR,F,N,Y,N,Y,N,J,G,,J,1.000000,L,Y,Y,N,Y,Y,,,,,,Y,,,,Y,,Y,Y,Y,,Y,,,,,,,,N,,,,,,,,,,,,,,Y,Y,,,,,,,"1",0.00744523150441668,-77.5446251267004,25.005151913156,-77.55,25
"248",Coatzacoalcos,Mexico,Latin-America,18.120759614995,-94.4004865260022,9405.000000,9350.000000,COATZACOALCOS,MX,18.150000,-94.416667,18.000000,9.000000,N,94.000000,25.000000,W,"148","28310",S,RN,G,N,N,N,Y,Y,G,A,K,K,0.000000,L,,Y,Y,,Y,Y,Y,Y,Y,Y,Y,Y,,Y,,,Y,Y,Y,Y,Y,N,,,,Y,,,Y,N,Y,N,N,N,Y,,Y,,,,,Y,Y,Y,,,,C,,M,"1",0.0334185138383839,-94.4004865260022,18.120759614995,-94.4166666666667,18.15
"249",Coles Bay Oil Terminal,Sint Maarten,Caribbean,18.0242496821265,-63.0806162740318,11372.000000,11355.000000,COLES BAY OIL TERMINAL,SX,18.016667,-63.083333,18.000000,1.000000,N,63.000000,5.000000,W,"147","25613",S,OR,F,N,N,N,Y,N,,J,,K,1.000000,,,Y,N,N,,N,Y,,Y,,,,,,,,Y,Y,Y,,Y,,,,,Y,N,,N,,,,,,,,,,,,,,N,,,,,N,,,"1",0.00805509371219582,-63.0806162740318,18.0242496821265,-63.0833333333333,18.0166666666667
"250",Colombo,Sri Lanka,Asia,6.94998217275718,79.8397869009183,49240.000000,49210.000000,COLOMBO,LK,6.950000,79.850000,6.000000,57.000000,N,79.000000,51.000000,E,"173","63233",M,CB,F,N,Y,N,Y,N,H,A,G,C,1.000000,M,,Y,Y,Y,Y,Y,Y,,Y,,Y,Y,Y,,Y,Y,Y,,Y,Y,Y,Y,,,,Y,,,Y,,Y,Y,,Y,Y,Y,Y,,,,,Y,Y,Y,Y,Y,Y,B,M,M,"1",0.0102131146406248,79.8397869009183,6.94998217275718,79.85,6.95
"251",Colonia,Micronesia,Oceania,9.51536965880089,138.125052007341,56630.000000,56560.000000,COLONIA,FM,9.516667,138.133333,9.000000,31.000000,N,138.000000,8.000000,E,"126","81187",V,CN,G,N,N,N,Y,Y,A,A,L,,1.000000,M,Y,Y,,N,Y,,Y,,,N,N,,,,Y,Y,Y,,Y,,,Y,,,,Y,Y,,N,N,N,N,N,Y,N,N,Y,Y,N,N,N,,Y,Y,,N,N,C,M,,"1",0.00838227830575294,138.125052007341,9.51536965880089,138.133333333333,9.51666666666667
"252",Come By Chance Harbor,Canada,North-America,47.7887408256278,-54.0004829323488,1715.000000,1680.000000,COME BY CHANCE HARBOR,CA,47.800000,-54.016667,47.000000,48.000000,N,54.000000,1.000000,W,"146","14355",S,OR,P,N,N,Y,Y,N,A,A,G,A,9.000000,L,Y,Y,Y,N,Y,Y,,,,Y,Y,Y,N,,,,Y,Y,,,Y,,,,,Y,,,Y,,,,,,,,,Y,Y,Y,Y,Y,Y,Y,Y,,,N,,,"1",0.0197150263508138,-54.0004829323488,47.7887408256278,-54.0166666666667,47.8
"253",Comodoro Rivadavia,Argentina,Latin-America,-45.8339314864208,-67.4497700806388,13920.000000,13310.000000,COMODORO RIVADAVIA,AR,-45.866667,-67.466667,45.000000,52.000000,S,67.000000,28.000000,W,"124","23010",V,CB,F,Y,Y,N,Y,,A,H,K,A,5.000000,L,Y,,Y,N,Y,Y,Y,,Y,Y,Y,Y,,,Y,Y,Y,Y,Y,Y,Y,Y,,,,Y,N,,N,Y,Y,,,Y,Y,Y,Y,Y,Y,Y,Y,Y,Y,Y,Y,Y,Y,C,,,"1",0.0368386569397687,-67.4497700806388,-45.8339314864208,-67.4666666666667,-45.8666666666667
"254",Conakry,Guinea,Africa,9.51414335959939,-13.7152409492114,45855.000000,45842.000000,CONAKRY,GN,9.516667,-13.716667,9.000000,31.000000,N,13.000000,43.000000,W,"143","51601",M,CB,G,Y,N,N,Y,,K,J,M,L,4.000000,L,Y,Y,Y,Y,Y,Y,Y,Y,Y,,Y,Y,Y,Y,,,Y,Y,Y,Y,Y,Y,,,,Y,Y,,,,Y,,,,Y,Y,Y,N,N,,N,N,Y,Y,Y,N,N,C,S,M,"1",0.00289823201592602,-13.7152409492114,9.51414335959939,-13.7166666666667,9.51666666666667
"255",Conchan Oil Terminal,Peru,Latin-America,-12.2489924004553,-76.926783415688,14940.000000,14830.000000,CONCHAN OIL TERMINAL,PE,-12.166667,-77.000000,12.000000,10.000000,S,77.000000,0.000000,W,"125","22170",V,OR,,,,,Y,,,,,E,1.000000,L,,,,Y,Y,,Y,,,,,Y,Y,,,,Y,,Y,Y,,Y,Y,,,,,,,,,,,,,,,,,,,,Y,Y,,Y,Y,C,,,"1",0.110173475311249,-76.926783415688,-12.2489924004553,-77,-12.1666666666667
"256",Constanta,Romania,Eastern-Europe,44.1317425257203,28.6484386222409,43560.000000,43540.000000,CONSTANTA,RO,44.166667,28.650000,44.000000,10.000000,N,28.000000,39.000000,E,BA24,"55060",M,CB,G,N,Y,N,Y,Y,C,A,M,H,0.000000,M,Y,Y,Y,N,Y,Y,Y,,Y,N,Y,Y,Y,Y,Y,Y,Y,,Y,Y,Y,Y,,,,Y,Y,,,Y,Y,Y,,Y,Y,Y,Y,Y,Y,Y,Y,Y,Y,Y,Y,Y,Y,B,M,L,"1",0.034959026321533,28.6484386222409,44.1317425257203,28.65,44.1666666666667
"257",Corinto,Nicaragua,Latin-America,12.4810093303964,-87.1690102662421,15550.000000,15520.000000,CORINTO,NI,12.483333,-87.166667,12.000000,29.000000,N,87.000000,10.000000,W,"153","21525",S,RN,G,Y,Y,N,Y,,H,L,H,H,1.000000,L,Y,,Y,N,Y,Y,Y,,Y,,Y,Y,,,,,Y,,N,Y,Y,Y,Y,,,Y,N,,,,Y,,,,Y,Y,Y,,N,N,,Y,Y,N,N,N,N,C,,M,"1",0.00330052247692374,-87.1690102662421,12.4810093303964,-87.1666666666667,12.4833333333333
